% ref pos   : 22.372109474 113.928031121   95.3030
%  GPST                  e-baseline(m)  n-baseline(m)  u-baseline(m)   Q  ns   sde(m)   sdn(m)   sdu(m)  sden(m)  sdnu(m)  sdue(m) age(s)  ratio
2020/05/25 00:00:00.000     41939.4191      6952.9154      -172.2417   2  10   0.6311   0.5137   1.4407   0.0583  -0.3593   0.1333   0.00    1.2
2020/05/25 00:00:30.000     41939.3805      6952.9665      -172.0783   2  10   0.4465   0.3529   0.9044  -0.0272  -0.2393   0.1676   0.00    1.4
2020/05/25 00:01:00.000     41939.3305      6953.0471      -171.8768   2  10   0.3614   0.2734   0.6337  -0.0507  -0.1817   0.1697   0.00    1.3
2020/05/25 00:01:30.000     41939.2821      6953.1550      -172.1073   2  10   0.3091   0.2216   0.4716  -0.0591  -0.1463   0.1630   0.00    1.2
2020/05/25 00:02:00.000     41939.2269      6953.2199      -172.4149   2  10   0.2722   0.1840   0.3673  -0.0624  -0.1222   0.1537   0.00    1.1
2020/05/25 00:02:30.000     41939.2186      6953.2270      -172.6317   2  10   0.2442   0.1554   0.2966  -0.0630  -0.1046   0.1440   0.00    1.0
2020/05/25 00:03:00.000     41939.2819      6953.2364      -172.8466   2  10   0.2216   0.1332   0.2464  -0.0621  -0.0912   0.1346   0.00    1.1
2020/05/25 00:03:30.000     41939.3166      6953.2182      -172.8770   2  10   0.2029   0.1154   0.2095  -0.0603  -0.0806   0.1259   0.00    1.2
2020/05/25 00:04:00.000     41939.3701      6953.1625      -172.8027   2  10   0.1870   0.1011   0.1814  -0.0580  -0.0721   0.1178   0.00    1.3
2020/05/25 00:04:30.000     41939.3796      6953.1298      -172.7793   2  10   0.1731   0.0894   0.1594  -0.0555  -0.0651   0.1104   0.00    1.4
2020/05/25 00:05:00.000     41939.3692      6953.1184      -172.8108   2  10   0.1609   0.0797   0.1419  -0.0529  -0.0592   0.1036   0.00    1.2
2020/05/25 00:05:30.000     41939.4052      6953.1280      -172.8562   2  10   0.1501   0.0716   0.1275  -0.0503  -0.0542   0.0974   0.00    1.1
2020/05/25 00:06:00.000     41939.4266      6953.1260      -172.9077   2  10   0.1403   0.0647   0.1156  -0.0478  -0.0499   0.0917   0.00    1.0
2020/05/25 00:06:30.000     41939.4193      6953.1217      -172.9538   2  10   0.1316   0.0589   0.1056  -0.0454  -0.0462   0.0865   0.00    1.2
2020/05/25 00:07:00.000     41939.4203      6953.1114      -172.9824   2  11   0.1236   0.0538   0.0970  -0.0431  -0.0429   0.0816   0.00    1.1
2020/05/25 00:07:30.000     41939.4111      6953.0905      -173.0215   2  11   0.1163   0.0494   0.0896  -0.0409  -0.0400   0.0772   0.00    1.1
2020/05/25 00:08:00.000     41939.3787      6953.0825      -173.1070   2  11   0.1097   0.0456   0.0831  -0.0388  -0.0374   0.0730   0.00    1.2
2020/05/25 00:08:30.000     41939.3302      6953.0814      -173.1553   2  11   0.1036   0.0422   0.0774  -0.0368  -0.0350   0.0692   0.00    1.2
2020/05/25 00:09:00.000     41939.2963      6953.0781      -173.1703   2  11   0.0981   0.0392   0.0724  -0.0350  -0.0329   0.0657   0.00    1.2
2020/05/25 00:09:30.000     41939.3059      6953.0721      -173.1538   2  11   0.0929   0.0366   0.0679  -0.0333  -0.0310   0.0625   0.00    1.2
2020/05/25 00:10:00.000     41939.3311      6953.0614      -173.1195   2  10   0.0883   0.0342   0.0639  -0.0317  -0.0293   0.0595   0.00    1.2
2020/05/25 00:10:30.000     41939.3605      6953.0433      -173.0693   2  10   0.0839   0.0321   0.0603  -0.0303  -0.0277   0.0567   0.00    1.1
2020/05/25 00:11:00.000     41939.3760      6953.0312      -173.0378   2  10   0.0799   0.0302   0.0570  -0.0289  -0.0262   0.0541   0.00    1.1
2020/05/25 00:11:30.000     41939.3891      6953.0123      -173.0053   2  10   0.0762   0.0284   0.0540  -0.0276  -0.0249   0.0516   0.00    1.0
2020/05/25 00:12:00.000     41939.3916      6952.9943      -172.9800   2  10   0.0727   0.0269   0.0513  -0.0264  -0.0236   0.0494   0.00    1.0
2020/05/25 00:12:30.000     41939.3765      6952.9810      -172.9613   2  10   0.0695   0.0254   0.0488  -0.0252  -0.0225   0.0473   0.00    1.1
2020/05/25 00:13:00.000     41939.3526      6952.9703      -172.9440   2  10   0.0665   0.0241   0.0465  -0.0241  -0.0215   0.0453   0.00    1.0
2020/05/25 00:13:30.000     41939.3237      6952.9608      -172.9256   2  10   0.0636   0.0229   0.0444  -0.0231  -0.0205   0.0434   0.00    1.1
2020/05/25 00:14:00.000     41939.2913      6952.9539      -172.9131   2  10   0.0610   0.0218   0.0424  -0.0222  -0.0196   0.0417   0.00    1.2
2020/05/25 00:14:30.000     41939.2465      6952.9487      -172.9209   2  10   0.0585   0.0207   0.0406  -0.0213  -0.0188   0.0401   0.00    1.3
2020/05/25 00:15:00.000     41939.1998      6952.9492      -172.9416   2  10   0.0562   0.0198   0.0389  -0.0205  -0.0180   0.0386   0.00    1.3
2020/05/25 00:15:30.000     41939.1542      6952.9492      -172.9711   2  10   0.0541   0.0189   0.0374  -0.0197  -0.0172   0.0371   0.00    1.4
2020/05/25 00:16:00.000     41939.1628      6952.9423      -172.9689   2  10   0.0520   0.0181   0.0359  -0.0189  -0.0166   0.0358   0.00    1.4
2020/05/25 00:16:30.000     41939.1789      6952.9367      -172.9656   2  10   0.0501   0.0173   0.0346  -0.0182  -0.0159   0.0345   0.00    1.4
2020/05/25 00:17:00.000     41939.1670      6952.9390      -172.9831   2  10   0.0483   0.0166   0.0333  -0.0175  -0.0153   0.0333   0.00    1.4
2020/05/25 00:17:30.000     41939.1528      6952.9443      -173.0016   2  10   0.0466   0.0159   0.0321  -0.0169  -0.0148   0.0322   0.00    1.4
2020/05/25 00:18:00.000     41939.1332      6952.9506      -173.0273   2  10   0.0450   0.0153   0.0310  -0.0163  -0.0142   0.0311   0.00    1.4
2020/05/25 00:18:30.000     41939.1187      6952.9598      -173.0491   2  10   0.0435   0.0147   0.0299  -0.0158  -0.0137   0.0301   0.00    1.3
2020/05/25 00:19:00.000     41939.1129      6952.9658      -173.0620   2  10   0.0420   0.0142   0.0289  -0.0152  -0.0133   0.0292   0.00    1.2
2020/05/25 00:19:30.000     41939.1073      6952.9724      -173.0722   2  10   0.0407   0.0137   0.0280  -0.0147  -0.0128   0.0283   0.00    1.0
2020/05/25 00:20:00.000     41939.1101      6952.9799      -173.0765   2  10   0.0394   0.0132   0.0271  -0.0143  -0.0124   0.0274   0.00    1.1
2020/05/25 00:20:30.000     41939.1181      6952.9856      -173.0786   2  10   0.0381   0.0127   0.0263  -0.0138  -0.0120   0.0266   0.00    1.2
2020/05/25 00:21:00.000     41939.1179      6952.9919      -173.0810   2  10   0.0370   0.0123   0.0255  -0.0134  -0.0116   0.0258   0.00    1.4
2020/05/25 00:21:30.000     41939.1216      6952.9973      -173.0836   2  10   0.0359   0.0119   0.0248  -0.0130  -0.0113   0.0251   0.00    1.5
2020/05/25 00:22:00.000     41939.1311      6953.0040      -173.0896   2  10   0.0348   0.0115   0.0240  -0.0126  -0.0109   0.0244   0.00    1.6
2020/05/25 00:22:30.000     41939.1425      6953.0089      -173.0969   2  10   0.0338   0.0111   0.0234  -0.0122  -0.0106   0.0237   0.00    1.7
2020/05/25 00:23:00.000     41939.1529      6953.0145      -173.1073   2  10   0.0329   0.0108   0.0227  -0.0118  -0.0103   0.0231   0.00    1.8
2020/05/25 00:23:30.000     41939.1648      6953.0218      -173.1152   2  10   0.0320   0.0105   0.0221  -0.0115  -0.0100   0.0225   0.00    1.8
2020/05/25 00:24:00.000     41939.1809      6953.0276      -173.1221   2  10   0.0311   0.0102   0.0216  -0.0112  -0.0097   0.0219   0.00    1.8
2020/05/25 00:24:30.000     41939.1965      6953.0322      -173.1264   2  10   0.0303   0.0099   0.0210  -0.0109  -0.0095   0.0213   0.00    1.8
2020/05/25 00:25:00.000     41939.2078      6953.0363      -173.1287   2  10   0.0295   0.0096   0.0205  -0.0106  -0.0092   0.0208   0.00    1.8
2020/05/25 00:25:30.000     41939.2236      6953.0387      -173.1264   2   9   0.0287   0.0093   0.0200  -0.0103  -0.0090   0.0203   0.00    1.8
2020/05/25 00:26:00.000     41939.3429      6953.1191      -173.1241   1  10   0.0010   0.0008   0.0020  -0.0000  -0.0004   0.0005   0.00    3.5
2020/05/25 00:26:30.000     41939.3427      6953.1196      -173.1247   1   9   0.0010   0.0008   0.0020  -0.0001  -0.0004   0.0005   0.00    3.7
2020/05/25 00:27:00.000     41939.3424      6953.1201      -173.1252   1   9   0.0009   0.0008   0.0020  -0.0001  -0.0003   0.0005   0.00    3.9
2020/05/25 00:27:30.000     41939.3422      6953.1206      -173.1257   1   9   0.0009   0.0008   0.0020  -0.0001  -0.0003   0.0005   0.00    4.1
2020/05/25 00:28:00.000     41939.3420      6953.1213      -173.1261   1   9   0.0009   0.0008   0.0019  -0.0001  -0.0003   0.0005   0.00    4.3
2020/05/25 00:28:30.000     41939.3419      6953.1219      -173.1264   1   9   0.0009   0.0008   0.0019  -0.0001  -0.0003   0.0005   0.00    4.5
2020/05/25 00:29:00.000     41939.3426      6953.1226      -173.1252   1   9   0.0010   0.0008   0.0021   0.0002  -0.0001   0.0007   0.00    4.7
2020/05/25 00:29:30.000     41939.3426      6953.1230      -173.1255   1   9   0.0010   0.0008   0.0021   0.0002  -0.0001   0.0007   0.00    4.8
2020/05/25 00:30:00.000     41939.3427      6953.1234      -173.1258   1   9   0.0010   0.0008   0.0020   0.0002  -0.0001   0.0007   0.00    5.0
2020/05/25 00:30:30.000     41939.3428      6953.1238      -173.1261   1   9   0.0010   0.0008   0.0020   0.0002  -0.0001   0.0007   0.00    5.2
2020/05/25 00:31:00.000     41939.3429      6953.1243      -173.1264   1   9   0.0010   0.0008   0.0020   0.0002  -0.0001   0.0007   0.00   25.6
2020/05/25 00:31:30.000     41939.3428      6953.1248      -173.1266   1   8   0.0010   0.0008   0.0020   0.0002  -0.0001   0.0007   0.00   33.0
2020/05/25 00:32:00.000     41939.3427      6953.1253      -173.1269   1   8   0.0010   0.0008   0.0020   0.0002  -0.0001   0.0007   0.00   40.0
2020/05/25 00:32:30.000     41939.3427      6953.1258      -173.1271   1   8   0.0009   0.0008   0.0020   0.0002  -0.0000   0.0007   0.00   46.7
2020/05/25 00:33:00.000     41939.3428      6953.1264      -173.1273   1   8   0.0009   0.0008   0.0020   0.0002  -0.0000   0.0007   0.00   52.8
2020/05/25 00:33:30.000     41939.3428      6953.1270      -173.1274   1   8   0.0009   0.0007   0.0019   0.0002  -0.0000   0.0007   0.00   57.1
2020/05/25 00:34:00.000     41939.3424      6953.1292      -173.1228   1   8   0.0009   0.0008   0.0020   0.0001   0.0003   0.0007   0.00   98.8
2020/05/25 00:34:30.000     41939.3425      6953.1297      -173.1229   1   8   0.0009   0.0008   0.0020   0.0001   0.0003   0.0007   0.00  100.9
2020/05/25 00:35:00.000     41939.3425      6953.1300      -173.1231   1   8   0.0009   0.0008   0.0020   0.0001   0.0003   0.0007   0.00  101.9
2020/05/25 00:35:30.000     41939.3425      6953.1303      -173.1234   1   8   0.0009   0.0008   0.0020   0.0001   0.0003   0.0007   0.00  104.6
2020/05/25 00:36:00.000     41939.3425      6953.1307      -173.1240   1   8   0.0009   0.0008   0.0020   0.0001   0.0003   0.0006   0.00  106.8
2020/05/25 00:36:30.000     41939.3425      6953.1310      -173.1248   1   8   0.0009   0.0008   0.0019   0.0001   0.0003   0.0006   0.00  108.3
2020/05/25 00:37:00.000     41939.3424      6953.1312      -173.1259   1   8   0.0009   0.0008   0.0019   0.0001   0.0003   0.0006   0.00  111.9
2020/05/25 00:37:30.000     41939.3422      6953.1313      -173.1270   1   8   0.0009   0.0008   0.0019   0.0001   0.0003   0.0006   0.00  117.2
2020/05/25 00:38:00.000     41939.3420      6953.1313      -173.1280   1   8   0.0009   0.0007   0.0019   0.0001   0.0003   0.0006   0.00  122.1
2020/05/25 00:38:30.000     41939.3417      6953.1313      -173.1289   1   8   0.0009   0.0007   0.0019   0.0001   0.0003   0.0006   0.00  129.0
2020/05/25 00:39:00.000     41939.3415      6953.1313      -173.1296   1   8   0.0009   0.0007   0.0019   0.0001   0.0003   0.0006   0.00  136.8
2020/05/25 00:39:30.000     41939.3413      6953.1314      -173.1303   1   8   0.0009   0.0007   0.0019   0.0001   0.0003   0.0006   0.00  143.8
2020/05/25 00:40:00.000     41939.3411      6953.1316      -173.1309   1   8   0.0009   0.0007   0.0019   0.0001   0.0003   0.0006   0.00  153.2
2020/05/25 00:40:30.000     41939.3409      6953.1319      -173.1315   1   8   0.0009   0.0007   0.0019   0.0001   0.0003   0.0006   0.00  164.5
2020/05/25 00:41:00.000     41939.3406      6953.1322      -173.1319   1   8   0.0009   0.0007   0.0018   0.0001   0.0003   0.0006   0.00  178.3
2020/05/25 00:41:30.000     41939.3405      6953.1326      -173.1324   1   8   0.0009   0.0007   0.0018   0.0001   0.0003   0.0006   0.00  193.5
2020/05/25 00:42:00.000     41939.3402      6953.1329      -173.1329   1   8   0.0009   0.0007   0.0018   0.0001   0.0003   0.0006   0.00  208.3
2020/05/25 00:42:30.000     41939.3399      6953.1333      -173.1331   1   8   0.0009   0.0007   0.0018   0.0001   0.0003   0.0006   0.00  229.4
2020/05/25 00:43:00.000     41939.3395      6953.1337      -173.1332   1   8   0.0009   0.0007   0.0018   0.0001   0.0003   0.0006   0.00  251.2
2020/05/25 00:43:30.000     41939.3391      6953.1341      -173.1333   1   8   0.0008   0.0007   0.0018   0.0001   0.0003   0.0006   0.00  277.5
2020/05/25 00:44:00.000     41939.3389      6953.1345      -173.1335   1   8   0.0008   0.0007   0.0018   0.0001   0.0003   0.0006   0.00  304.2
2020/05/25 00:44:30.000     41939.3387      6953.1350      -173.1340   1   8   0.0008   0.0007   0.0018   0.0001   0.0003   0.0006   0.00  327.6
2020/05/25 00:45:00.000     41939.3385      6953.1355      -173.1344   1   8   0.0008   0.0007   0.0018   0.0001   0.0003   0.0006   0.00  349.8
2020/05/25 00:45:30.000     41939.3384      6953.1360      -173.1347   1   8   0.0008   0.0007   0.0018   0.0001   0.0003   0.0006   0.00  375.1
2020/05/25 00:46:00.000     41939.3384      6953.1364      -173.1350   1   8   0.0008   0.0007   0.0018   0.0001   0.0003   0.0006   0.00  399.9
2020/05/25 00:46:30.000     41939.3385      6953.1369      -173.1352   1   8   0.0008   0.0007   0.0017   0.0001   0.0003   0.0006   0.00  419.2
2020/05/25 00:47:00.000     41939.3387      6953.1373      -173.1353   1   8   0.0008   0.0007   0.0017   0.0001   0.0003   0.0006   0.00  436.4
2020/05/25 00:47:30.000     41939.3390      6953.1378      -173.1354   1   8   0.0008   0.0007   0.0017   0.0001   0.0002   0.0006   0.00  456.4
2020/05/25 00:48:00.000     41939.3393      6953.1382      -173.1355   1   8   0.0008   0.0007   0.0017   0.0001   0.0002   0.0006   0.00  478.8
2020/05/25 00:48:30.000     41939.3397      6953.1386      -173.1356   1   8   0.0008   0.0007   0.0017   0.0001   0.0002   0.0006   0.00  496.4
2020/05/25 00:49:00.000     41939.3401      6953.1389      -173.1357   1   8   0.0008   0.0007   0.0017   0.0001   0.0002   0.0006   0.00  506.8
2020/05/25 00:49:30.000     41939.3406      6953.1391      -173.1357   1   8   0.0008   0.0007   0.0017   0.0001   0.0002   0.0006   0.00  525.1
2020/05/25 00:50:00.000     41939.3410      6953.1394      -173.1358   1   8   0.0008   0.0007   0.0017   0.0001   0.0002   0.0006   0.00  547.0
2020/05/25 00:50:30.000     41939.3413      6953.1396      -173.1356   1   8   0.0008   0.0007   0.0017   0.0001   0.0002   0.0006   0.00  568.6
2020/05/25 00:51:00.000     41939.3415      6953.1397      -173.1353   1   8   0.0008   0.0007   0.0017   0.0001   0.0002   0.0006   0.00  596.4
2020/05/25 00:51:30.000     41939.3417      6953.1397      -173.1349   1   8   0.0008   0.0007   0.0017   0.0001   0.0002   0.0006   0.00  627.4
2020/05/25 00:52:00.000     41939.3417      6953.1396      -173.1343   1   8   0.0008   0.0007   0.0017   0.0001   0.0002   0.0006   0.00  650.8
2020/05/25 00:52:30.000     41939.3418      6953.1395      -173.1336   1   8   0.0008   0.0007   0.0017   0.0000   0.0002   0.0006   0.00  686.1
2020/05/25 00:53:00.000     41939.3420      6953.1394      -173.1329   1   8   0.0008   0.0007   0.0017   0.0000   0.0002   0.0006   0.00  740.9
2020/05/25 00:53:30.000     41939.3423      6953.1394      -173.1325   1   8   0.0008   0.0007   0.0016   0.0000   0.0002   0.0006   0.00  812.2
2020/05/25 00:54:00.000     41939.3427      6953.1395      -173.1323   1   8   0.0008   0.0007   0.0016   0.0000   0.0002   0.0006   0.00  902.8
2020/05/25 00:54:30.000     41939.3431      6953.1398      -173.1321   1   8   0.0008   0.0007   0.0016   0.0000   0.0002   0.0006   0.00  976.9
2020/05/25 00:55:00.000     41939.3434      6953.1401      -173.1316   1   8   0.0008   0.0007   0.0016  -0.0000   0.0002   0.0006   0.00  999.9
2020/05/25 00:55:30.000     41939.3437      6953.1404      -173.1310   1   8   0.0008   0.0007   0.0016  -0.0000   0.0002   0.0006   0.00  995.7
2020/05/25 00:56:00.000     41939.3441      6953.1407      -173.1303   1   8   0.0008   0.0007   0.0016  -0.0000   0.0002   0.0006   0.00  949.6
2020/05/25 00:56:30.000     41939.3444      6953.1410      -173.1295   1   8   0.0008   0.0007   0.0016  -0.0000   0.0002   0.0006   0.00  881.5
2020/05/25 00:57:00.000     41939.3445      6953.1413      -173.1283   1   8   0.0008   0.0007   0.0016  -0.0000   0.0002   0.0006   0.00  777.7
2020/05/25 00:57:30.000     41939.3447      6953.1415      -173.1271   1   8   0.0008   0.0007   0.0016  -0.0001   0.0002   0.0006   0.00  671.2
2020/05/25 00:58:00.000     41939.3450      6953.1420      -173.1260   1   8   0.0007   0.0007   0.0016  -0.0001   0.0002   0.0006   0.00  592.4
2020/05/25 00:58:30.000     41939.3452      6953.1424      -173.1247   1   8   0.0007   0.0007   0.0016  -0.0001   0.0002   0.0006   0.00  519.8
2020/05/25 00:59:00.000     41939.3455      6953.1427      -173.1235   1   8   0.0007   0.0007   0.0016  -0.0001   0.0002   0.0006   0.00  467.2
2020/05/25 00:59:30.000     41939.3457      6953.1431      -173.1224   1   8   0.0007   0.0007   0.0016  -0.0001   0.0002   0.0006   0.00  431.5
2020/05/25 01:00:00.000     41939.3459      6953.1435      -173.1214   1   8   0.0007   0.0007   0.0016  -0.0001   0.0002   0.0006   0.00  402.8
2020/05/25 01:00:30.000     41939.3462      6953.1440      -173.1205   1   8   0.0007   0.0007   0.0016  -0.0001   0.0002   0.0006   0.00  375.6
2020/05/25 01:01:00.000     41939.3465      6953.1445      -173.1195   1   8   0.0007   0.0006   0.0016  -0.0001   0.0002   0.0006   0.00  349.8
2020/05/25 01:01:30.000     41939.3469      6953.1451      -173.1186   1   8   0.0007   0.0006   0.0015  -0.0001   0.0002   0.0006   0.00  322.9
2020/05/25 01:02:00.000     41939.3473      6953.1457      -173.1177   1   8   0.0007   0.0006   0.0015  -0.0001   0.0002   0.0006   0.00  295.9
2020/05/25 01:02:30.000     41939.3478      6953.1464      -173.1169   1   8   0.0007   0.0006   0.0015  -0.0001   0.0002   0.0006   0.00  273.0
2020/05/25 01:03:00.000     41939.3483      6953.1470      -173.1162   1   8   0.0007   0.0006   0.0015  -0.0001   0.0002   0.0006   0.00  252.9
2020/05/25 01:03:30.000     41939.3488      6953.1476      -173.1155   1   8   0.0007   0.0006   0.0015  -0.0001   0.0002   0.0006   0.00  233.6
2020/05/25 01:04:00.000     41939.3492      6953.1481      -173.1148   1   8   0.0007   0.0006   0.0015  -0.0001   0.0001   0.0006   0.00  214.2
2020/05/25 01:04:30.000     41939.3496      6953.1486      -173.1140   1   8   0.0007   0.0006   0.0015  -0.0001   0.0001   0.0006   0.00  197.0
2020/05/25 01:05:00.000     41939.3500      6953.1490      -173.1133   1   8   0.0007   0.0006   0.0015  -0.0001   0.0001   0.0006   0.00  182.2
2020/05/25 01:05:30.000     41939.3504      6953.1493      -173.1124   1   8   0.0007   0.0006   0.0015  -0.0001   0.0001   0.0006   0.00  169.0
2020/05/25 01:06:00.000     41939.3506      6953.1496      -173.1117   1   8   0.0007   0.0006   0.0015  -0.0001   0.0001   0.0006   0.00  158.0
2020/05/25 01:06:30.000     41939.3509      6953.1498      -173.1112   1   8   0.0007   0.0006   0.0015  -0.0001   0.0001   0.0006   0.00  149.9
2020/05/25 01:07:00.000     41939.3510      6953.1499      -173.1109   1   8   0.0007   0.0006   0.0015  -0.0001   0.0001   0.0006   0.00  144.1
2020/05/25 01:07:30.000     41939.3510      6953.1499      -173.1108   1   8   0.0007   0.0006   0.0015  -0.0001   0.0001   0.0006   0.00  140.8
2020/05/25 01:08:00.000     41939.3510      6953.1499      -173.1108   1   8   0.0007   0.0006   0.0015  -0.0001   0.0001   0.0006   0.00  138.8
2020/05/25 01:08:30.000     41939.3510      6953.1498      -173.1108   1   8   0.0007   0.0006   0.0015  -0.0001   0.0001   0.0006   0.00  136.2
2020/05/25 01:09:00.000     41939.3510      6953.1497      -173.1109   1   8   0.0007   0.0006   0.0015  -0.0001   0.0001   0.0006   0.00  135.0
2020/05/25 01:09:30.000     41939.3509      6953.1496      -173.1109   1   8   0.0007   0.0006   0.0015  -0.0001   0.0001   0.0006   0.00  135.2
2020/05/25 01:10:00.000     41939.3508      6953.1494      -173.1110   1   8   0.0007   0.0006   0.0015  -0.0001   0.0001   0.0006   0.00  136.8
2020/05/25 01:10:30.000     41939.3506      6953.1493      -173.1109   1   8   0.0007   0.0006   0.0015  -0.0001   0.0001   0.0006   0.00  138.2
2020/05/25 01:11:00.000     41939.3505      6953.1493      -173.1107   1   8   0.0007   0.0006   0.0015  -0.0001   0.0001   0.0006   0.00  137.8
2020/05/25 01:11:30.000     41939.3505      6953.1494      -173.1105   1   8   0.0007   0.0006   0.0015  -0.0001   0.0001   0.0006   0.00  136.7
2020/05/25 01:12:00.000     41939.3504      6953.1494      -173.1103   1   8   0.0007   0.0006   0.0015  -0.0001   0.0001   0.0006   0.00  136.0
2020/05/25 01:12:30.000     41939.3504      6953.1495      -173.1103   1   8   0.0007   0.0006   0.0014  -0.0001   0.0001   0.0006   0.00  136.6
2020/05/25 01:13:00.000     41939.3503      6953.1495      -173.1104   1   8   0.0007   0.0006   0.0014  -0.0001   0.0001   0.0006   0.00  139.4
2020/05/25 01:13:30.000     41939.3502      6953.1495      -173.1105   1   8   0.0007   0.0006   0.0014  -0.0001   0.0001   0.0006   0.00  143.3
2020/05/25 01:14:00.000     41939.3500      6953.1495      -173.1107   1   8   0.0007   0.0006   0.0014  -0.0001   0.0001   0.0006   0.00  146.7
2020/05/25 01:14:30.000     41939.3498      6953.1495      -173.1110   1   8   0.0007   0.0006   0.0014  -0.0001   0.0001   0.0006   0.00  151.0
2020/05/25 01:15:00.000     41939.3497      6953.1494      -173.1114   1   8   0.0007   0.0006   0.0014  -0.0001   0.0001   0.0006   0.00  156.7
2020/05/25 01:15:30.000     41939.3495      6953.1493      -173.1118   1   8   0.0007   0.0006   0.0014  -0.0001   0.0001   0.0006   0.00  162.9
2020/05/25 01:16:00.000     41939.3493      6953.1492      -173.1121   1   8   0.0007   0.0006   0.0014  -0.0001   0.0001   0.0006   0.00  168.7
2020/05/25 01:16:30.000     41939.3491      6953.1491      -173.1124   1   8   0.0007   0.0006   0.0014  -0.0001   0.0000   0.0006   0.00  173.8
2020/05/25 01:17:00.000     41939.3468      6953.1470      -173.1167   2   9   0.0007   0.0007   0.0016  -0.0001  -0.0001   0.0006   0.00    1.1
2020/05/25 01:17:30.000     41939.3466      6953.1469      -173.1167   2   9   0.0007   0.0006   0.0016  -0.0001  -0.0001   0.0006   0.00    1.3
2020/05/25 01:18:00.000     41939.3464      6953.1469      -173.1166   2   9   0.0007   0.0006   0.0016  -0.0001  -0.0001   0.0006   0.00    1.4
2020/05/25 01:18:30.000     41939.3462      6953.1468      -173.1164   2   9   0.0007   0.0006   0.0016  -0.0001  -0.0001   0.0006   0.00    1.6
2020/05/25 01:19:00.000     41939.3460      6953.1468      -173.1164   2   9   0.0007   0.0006   0.0016  -0.0001  -0.0001   0.0006   0.00    1.8
2020/05/25 01:19:30.000     41939.3458      6953.1469      -173.1164   2   9   0.0007   0.0006   0.0016  -0.0001  -0.0001   0.0006   0.00    2.0
2020/05/25 01:20:00.000     41939.3456      6953.1469      -173.1165   2   9   0.0007   0.0006   0.0016  -0.0002  -0.0001   0.0006   0.00    2.1
2020/05/25 01:20:30.000     41939.3453      6953.1469      -173.1166   2   9   0.0007   0.0006   0.0015  -0.0002  -0.0001   0.0006   0.00    2.3
2020/05/25 01:21:00.000     41939.3452      6953.1470      -173.1166   2   9   0.0007   0.0006   0.0015  -0.0002  -0.0001   0.0006   0.00    2.5
2020/05/25 01:21:30.000     41939.3450      6953.1471      -173.1165   2   9   0.0007   0.0006   0.0015  -0.0002  -0.0001   0.0006   0.00    2.8
2020/05/25 01:22:00.000     41939.3448      6953.1472      -173.1164   2   9   0.0007   0.0006   0.0015  -0.0002  -0.0001   0.0006   0.00    3.0
2020/05/25 01:22:30.000     41939.3463      6953.1493      -173.1124   1   9   0.0006   0.0006   0.0014  -0.0002   0.0001   0.0005   0.00    3.2
2020/05/25 01:23:00.000     41939.3460      6953.1493      -173.1124   1   9   0.0006   0.0006   0.0014  -0.0002   0.0001   0.0005   0.00    3.6
2020/05/25 01:23:30.000     41939.3458      6953.1494      -173.1125   1   9   0.0006   0.0006   0.0014  -0.0002   0.0001   0.0005   0.00    4.0
2020/05/25 01:24:00.000     41939.3456      6953.1494      -173.1124   1   9   0.0006   0.0006   0.0014  -0.0002   0.0001   0.0005   0.00    4.4
2020/05/25 01:24:30.000     41939.3455      6953.1495      -173.1123   1   9   0.0006   0.0006   0.0014  -0.0002   0.0001   0.0005   0.00    4.8
2020/05/25 01:25:00.000     41939.3453      6953.1496      -173.1125   1   9   0.0006   0.0006   0.0013  -0.0002   0.0001   0.0005   0.00    5.3
2020/05/25 01:25:30.000     41939.3452      6953.1498      -173.1127   1   9   0.0006   0.0006   0.0013  -0.0002   0.0001   0.0005   0.00    5.7
2020/05/25 01:26:00.000     41939.3451      6953.1500      -173.1129   1   9   0.0006   0.0006   0.0013  -0.0002   0.0001   0.0005   0.00    5.9
2020/05/25 01:26:30.000     41939.3449      6953.1502      -173.1132   1   9   0.0006   0.0006   0.0013  -0.0002   0.0001   0.0005   0.00    6.1
2020/05/25 01:27:00.000     41939.3447      6953.1503      -173.1136   1   9   0.0006   0.0006   0.0013  -0.0002   0.0001   0.0005   0.00    6.2
2020/05/25 01:27:30.000     41939.3444      6953.1503      -173.1139   1   9   0.0006   0.0006   0.0013  -0.0002   0.0001   0.0005   0.00   10.2
2020/05/25 01:28:00.000     41939.3441      6953.1503      -173.1141   1   9   0.0006   0.0006   0.0013  -0.0002   0.0001   0.0005   0.00   14.4
2020/05/25 01:28:30.000     41939.3438      6953.1504      -173.1144   1   9   0.0006   0.0006   0.0013  -0.0002   0.0001   0.0005   0.00   18.4
2020/05/25 01:29:00.000     41939.3436      6953.1505      -173.1146   1   9   0.0006   0.0006   0.0013  -0.0002   0.0001   0.0005   0.00   22.7
2020/05/25 01:29:30.000     41939.3434      6953.1505      -173.1147   1   9   0.0006   0.0006   0.0013  -0.0002   0.0001   0.0005   0.00   26.5
2020/05/25 01:30:00.000     41939.3432      6953.1506      -173.1149   1   9   0.0006   0.0006   0.0013  -0.0002   0.0001   0.0005   0.00   29.9
2020/05/25 01:30:30.000     41939.3429      6953.1506      -173.1150   1   9   0.0006   0.0006   0.0013  -0.0002   0.0001   0.0005   0.00   32.9
2020/05/25 01:31:00.000     41939.3427      6953.1506      -173.1152   1   9   0.0006   0.0006   0.0013  -0.0002   0.0001   0.0005   0.00   35.6
2020/05/25 01:31:30.000     41939.3424      6953.1506      -173.1153   1   9   0.0006   0.0006   0.0013  -0.0002   0.0001   0.0005   0.00   38.1
2020/05/25 01:32:00.000     41939.3421      6953.1506      -173.1156   1   9   0.0006   0.0006   0.0013  -0.0002   0.0001   0.0005   0.00   40.2
2020/05/25 01:32:30.000     41939.3417      6953.1507      -173.1161   1   9   0.0006   0.0006   0.0013  -0.0002   0.0001   0.0005   0.00   42.7
2020/05/25 01:33:00.000     41939.3411      6953.1488      -173.1180   2  10   0.0006   0.0006   0.0014  -0.0002   0.0001   0.0006   0.00    1.1
2020/05/25 01:33:30.000     41939.3409      6953.1489      -173.1183   2  10   0.0006   0.0006   0.0014  -0.0002   0.0001   0.0006   0.00    1.2
2020/05/25 01:34:00.000     41939.3406      6953.1489      -173.1187   2  10   0.0006   0.0006   0.0014  -0.0002   0.0001   0.0006   0.00    1.3
2020/05/25 01:34:30.000     41939.3404      6953.1489      -173.1190   2   9   0.0006   0.0006   0.0014  -0.0002   0.0001   0.0006   0.00    1.5
2020/05/25 01:35:00.000     41939.3402      6953.1489      -173.1194   2   9   0.0006   0.0006   0.0014  -0.0002   0.0001   0.0006   0.00    1.6
2020/05/25 01:35:30.000     41939.3401      6953.1489      -173.1197   2   9   0.0006   0.0006   0.0014  -0.0002   0.0001   0.0006   0.00    1.7
2020/05/25 01:36:00.000     41939.3399      6953.1489      -173.1199   2   9   0.0006   0.0006   0.0014  -0.0002   0.0001   0.0006   0.00    1.9
2020/05/25 01:36:30.000     41939.3397      6953.1489      -173.1202   2   9   0.0006   0.0006   0.0014  -0.0002   0.0001   0.0006   0.00    2.0
2020/05/25 01:37:00.000     41939.3395      6953.1489      -173.1204   2   9   0.0006   0.0006   0.0014  -0.0002   0.0001   0.0006   0.00    2.2
2020/05/25 01:37:30.000     41939.3393      6953.1488      -173.1207   2   9   0.0006   0.0006   0.0014  -0.0002   0.0001   0.0006   0.00    2.4
2020/05/25 01:38:00.000     41939.3391      6953.1488      -173.1210   2   9   0.0006   0.0006   0.0014  -0.0002   0.0001   0.0006   0.00    2.5
2020/05/25 01:38:30.000     41939.3390      6953.1487      -173.1213   2   9   0.0006   0.0006   0.0014  -0.0002   0.0001   0.0006   0.00    2.6
2020/05/25 01:39:00.000     41939.3388      6953.1487      -173.1216   2   9   0.0006   0.0006   0.0014  -0.0002   0.0001   0.0006   0.00    2.8
2020/05/25 01:39:30.000     41939.3387      6953.1487      -173.1219   2   9   0.0006   0.0006   0.0014  -0.0002   0.0001   0.0006   0.00    2.9
2020/05/25 01:40:00.000     41939.3378      6953.1518      -173.1229   1   9   0.0006   0.0005   0.0012  -0.0002   0.0001   0.0005   0.00    3.1
2020/05/25 01:40:30.000     41939.3377      6953.1519      -173.1233   1   9   0.0006   0.0005   0.0012  -0.0002   0.0001   0.0005   0.00    3.2
2020/05/25 01:41:00.000     41939.3375      6953.1520      -173.1236   1   9   0.0006   0.0005   0.0012  -0.0002   0.0001   0.0005   0.00    3.4
2020/05/25 01:41:30.000     41939.3374      6953.1521      -173.1240   1   9   0.0006   0.0005   0.0012  -0.0002   0.0001   0.0005   0.00    3.5
2020/05/25 01:42:00.000     41939.3372      6953.1522      -173.1242   1   9   0.0006   0.0005   0.0012  -0.0002   0.0001   0.0005   0.00    3.6
2020/05/25 01:42:30.000     41939.3370      6953.1522      -173.1244   1   9   0.0006   0.0005   0.0012  -0.0002   0.0001   0.0005   0.00    3.8
2020/05/25 01:43:00.000     41939.3369      6953.1522      -173.1245   1   9   0.0006   0.0005   0.0012  -0.0002   0.0001   0.0005   0.00    3.9
2020/05/25 01:43:30.000     41939.3368      6953.1523      -173.1246   1   9   0.0006   0.0005   0.0012  -0.0002   0.0001   0.0005   0.00    4.0
2020/05/25 01:44:00.000     41939.3367      6953.1522      -173.1246   1   9   0.0006   0.0005   0.0012  -0.0002   0.0001   0.0005   0.00    4.2
2020/05/25 01:44:30.000     41939.3366      6953.1522      -173.1245   1   9   0.0006   0.0005   0.0012  -0.0002   0.0001   0.0004   0.00    4.3
2020/05/25 01:45:00.000     41939.3366      6953.1522      -173.1245   1   9   0.0006   0.0005   0.0012  -0.0002   0.0001   0.0004   0.00   18.8
2020/05/25 01:45:30.000     41939.3365      6953.1522      -173.1245   1   9   0.0006   0.0005   0.0012  -0.0002   0.0001   0.0004   0.00   28.9
2020/05/25 01:46:00.000     41939.3364      6953.1522      -173.1245   1   9   0.0006   0.0005   0.0012  -0.0002   0.0001   0.0004   0.00   31.4
2020/05/25 01:46:30.000     41939.3363      6953.1523      -173.1245   1   9   0.0006   0.0005   0.0012  -0.0002   0.0001   0.0004   0.00   33.8
2020/05/25 01:47:00.000     41939.3362      6953.1523      -173.1247   1   9   0.0006   0.0005   0.0012  -0.0002   0.0001   0.0004   0.00   35.6
2020/05/25 01:47:30.000     41939.3360      6953.1525      -173.1248   1   9   0.0006   0.0005   0.0012  -0.0002   0.0001   0.0004   0.00   37.3
2020/05/25 01:48:00.000     41939.3359      6953.1526      -173.1249   1   9   0.0006   0.0005   0.0012  -0.0002   0.0001   0.0004   0.00   39.1
2020/05/25 01:48:30.000     41939.3357      6953.1528      -173.1252   1   9   0.0006   0.0005   0.0012  -0.0002   0.0001   0.0004   0.00   40.5
2020/05/25 01:49:00.000     41939.3355      6953.1529      -173.1253   1   9   0.0006   0.0005   0.0012  -0.0002   0.0001   0.0004   0.00   41.9
2020/05/25 01:49:30.000     41939.3354      6953.1529      -173.1253   1   9   0.0006   0.0005   0.0012  -0.0002   0.0001   0.0004   0.00   43.4
2020/05/25 01:50:00.000     41939.3352      6953.1530      -173.1253   1   9   0.0006   0.0005   0.0012  -0.0002   0.0001   0.0004   0.00   45.1
2020/05/25 01:50:30.000     41939.3352      6953.1530      -173.1252   1   9   0.0006   0.0005   0.0012  -0.0002   0.0001   0.0004   0.00   47.1
2020/05/25 01:51:00.000     41939.3351      6953.1530      -173.1252   1   9   0.0006   0.0005   0.0012  -0.0002   0.0001   0.0004   0.00   49.0
2020/05/25 01:51:30.000     41939.3351      6953.1531      -173.1251   1   9   0.0005   0.0005   0.0012  -0.0002   0.0001   0.0004   0.00   50.7
2020/05/25 01:52:00.000     41939.3350      6953.1532      -173.1250   1   9   0.0005   0.0005   0.0012  -0.0002   0.0001   0.0004   0.00   52.3
2020/05/25 01:52:30.000     41939.3350      6953.1533      -173.1249   1   9   0.0005   0.0005   0.0012  -0.0002   0.0001   0.0004   0.00   54.2
2020/05/25 01:53:00.000     41939.3349      6953.1534      -173.1247   1   9   0.0005   0.0005   0.0012  -0.0002   0.0001   0.0004   0.00   56.4
2020/05/25 01:53:30.000     41939.3349      6953.1534      -173.1246   1   9   0.0005   0.0005   0.0012  -0.0002   0.0001   0.0004   0.00   58.8
2020/05/25 01:54:00.000     41939.3349      6953.1535      -173.1244   1   8   0.0005   0.0005   0.0012  -0.0002   0.0001   0.0004   0.00   60.8
2020/05/25 01:54:30.000     41939.3348      6953.1536      -173.1242   1   8   0.0005   0.0005   0.0012  -0.0002   0.0001   0.0004   0.00   63.0
2020/05/25 01:55:00.000     41939.3346      6953.1536      -173.1242   1   8   0.0005   0.0005   0.0012  -0.0002   0.0001   0.0004   0.00   65.2
2020/05/25 01:55:30.000     41939.3345      6953.1536      -173.1242   1   8   0.0005   0.0005   0.0012  -0.0002   0.0001   0.0004   0.00   67.0
2020/05/25 01:56:00.000     41939.3343      6953.1536      -173.1242   1   8   0.0005   0.0005   0.0012  -0.0002   0.0001   0.0004   0.00   69.0
2020/05/25 01:56:30.000     41939.3341      6953.1536      -173.1241   1   8   0.0005   0.0005   0.0012  -0.0002   0.0001   0.0004   0.00   70.6
2020/05/25 01:57:00.000     41939.3338      6953.1536      -173.1240   1   8   0.0005   0.0005   0.0012  -0.0002   0.0001   0.0004   0.00   72.2
2020/05/25 01:57:30.000     41939.3336      6953.1536      -173.1239   1   8   0.0005   0.0005   0.0012  -0.0002   0.0001   0.0004   0.00   74.0
2020/05/25 01:58:00.000     41939.3334      6953.1536      -173.1238   1   8   0.0005   0.0005   0.0012  -0.0002   0.0001   0.0004   0.00   75.5
2020/05/25 01:58:30.000     41939.3332      6953.1536      -173.1237   1   8   0.0005   0.0005   0.0012  -0.0002   0.0001   0.0004   0.00   77.0
2020/05/25 01:59:00.000     41939.3330      6953.1536      -173.1237   1   8   0.0005   0.0005   0.0012  -0.0002   0.0001   0.0004   0.00   78.7
2020/05/25 01:59:30.000     41939.3328      6953.1535      -173.1236   1   8   0.0005   0.0005   0.0011  -0.0002   0.0001   0.0004   0.00   80.7
2020/05/25 02:00:00.000     41939.3326      6953.1535      -173.1236   1   8   0.0005   0.0005   0.0011  -0.0002   0.0001   0.0004   0.00   82.4
2020/05/25 02:00:30.000     41939.3324      6953.1535      -173.1237   1   8   0.0005   0.0005   0.0011  -0.0002   0.0001   0.0004   0.00   84.1
2020/05/25 02:01:00.000     41939.3322      6953.1534      -173.1238   1   8   0.0005   0.0005   0.0011  -0.0002   0.0001   0.0004   0.00   86.0
2020/05/25 02:01:30.000     41939.3320      6953.1533      -173.1239   1   8   0.0005   0.0005   0.0011  -0.0002   0.0001   0.0004   0.00   88.1
2020/05/25 02:02:00.000     41939.3319      6953.1533      -173.1240   1   8   0.0005   0.0005   0.0011  -0.0002   0.0001   0.0004   0.00   90.4
2020/05/25 02:02:30.000     41939.3317      6953.1531      -173.1242   1   8   0.0005   0.0005   0.0011  -0.0002   0.0001   0.0004   0.00   92.7
2020/05/25 02:03:00.000     41939.3315      6953.1530      -173.1244   1   8   0.0005   0.0005   0.0011  -0.0002   0.0001   0.0004   0.00   94.8
2020/05/25 02:03:30.000     41939.3314      6953.1529      -173.1245   1   8   0.0005   0.0005   0.0011  -0.0002   0.0001   0.0004   0.00   97.8
2020/05/25 02:04:00.000     41939.3313      6953.1527      -173.1246   1   8   0.0005   0.0005   0.0011  -0.0002   0.0001   0.0004   0.00  101.2
2020/05/25 02:04:30.000     41939.3311      6953.1525      -173.1247   1   8   0.0005   0.0005   0.0011  -0.0002   0.0001   0.0004   0.00  104.0
2020/05/25 02:05:00.000     41939.3310      6953.1524      -173.1248   1   8   0.0005   0.0005   0.0011  -0.0002   0.0001   0.0004   0.00  107.1
2020/05/25 02:05:30.000     41939.3309      6953.1523      -173.1249   1   8   0.0005   0.0005   0.0011  -0.0002   0.0001   0.0004   0.00  110.4
2020/05/25 02:06:00.000     41939.3308      6953.1522      -173.1250   1   8   0.0005   0.0005   0.0011  -0.0002   0.0001   0.0004   0.00  113.7
2020/05/25 02:06:30.000     41939.3306      6953.1521      -173.1250   1   8   0.0005   0.0005   0.0011  -0.0002   0.0001   0.0004   0.00  117.7
2020/05/25 02:07:00.000     41939.3306      6953.1519      -173.1250   1   8   0.0005   0.0005   0.0011  -0.0002   0.0001   0.0004   0.00  121.4
2020/05/25 02:07:30.000     41939.3305      6953.1518      -173.1250   1   8   0.0005   0.0005   0.0011  -0.0002   0.0001   0.0004   0.00  125.5
2020/05/25 02:08:00.000     41939.3304      6953.1517      -173.1250   1   8   0.0005   0.0005   0.0011  -0.0002   0.0001   0.0004   0.00  129.7
2020/05/25 02:08:30.000     41939.3303      6953.1516      -173.1250   1   8   0.0005   0.0005   0.0011  -0.0002   0.0001   0.0004   0.00  133.4
2020/05/25 02:09:00.000     41939.3302      6953.1516      -173.1250   1   8   0.0005   0.0005   0.0011  -0.0002   0.0001   0.0004   0.00  137.5
2020/05/25 02:09:30.000     41939.3301      6953.1515      -173.1250   1   8   0.0005   0.0005   0.0011  -0.0002   0.0001   0.0004   0.00  141.7
2020/05/25 02:10:00.000     41939.3300      6953.1514      -173.1250   1   8   0.0005   0.0005   0.0011  -0.0002   0.0001   0.0004   0.00  145.4
2020/05/25 02:10:30.000     41939.3298      6953.1514      -173.1249   1   8   0.0005   0.0005   0.0011  -0.0002   0.0001   0.0004   0.00  149.3
2020/05/25 02:11:00.000     41939.3297      6953.1513      -173.1249   1   8   0.0005   0.0005   0.0011  -0.0002   0.0001   0.0004   0.00  152.7
2020/05/25 02:11:30.000     41939.3296      6953.1512      -173.1248   1   8   0.0005   0.0005   0.0011  -0.0002   0.0001   0.0004   0.00  155.7
2020/05/25 02:12:00.000     41939.3296      6953.1511      -173.1248   1   8   0.0005   0.0005   0.0011  -0.0002   0.0001   0.0004   0.00  158.6
2020/05/25 02:12:30.000     41939.3296      6953.1511      -173.1247   1   8   0.0005   0.0005   0.0011  -0.0002   0.0001   0.0004   0.00  162.2
2020/05/25 02:13:00.000     41939.3295      6953.1510      -173.1247   1   8   0.0005   0.0005   0.0011  -0.0002   0.0001   0.0004   0.00  164.9
2020/05/25 02:13:30.000     41939.3294      6953.1509      -173.1247   1   8   0.0005   0.0005   0.0011  -0.0002   0.0001   0.0004   0.00  166.9
2020/05/25 02:14:00.000     41939.3294      6953.1508      -173.1247   1   8   0.0005   0.0005   0.0011  -0.0002   0.0001   0.0004   0.00  168.8
2020/05/25 02:14:30.000     41939.3293      6953.1507      -173.1248   1   8   0.0005   0.0004   0.0011  -0.0002   0.0001   0.0004   0.00  169.6
2020/05/25 02:15:00.000     41939.3293      6953.1506      -173.1248   1   8   0.0005   0.0004   0.0011  -0.0002   0.0001   0.0004   0.00  170.8
2020/05/25 02:15:30.000     41939.3292      6953.1504      -173.1249   1   8   0.0005   0.0004   0.0011  -0.0002   0.0001   0.0004   0.00  172.0
2020/05/25 02:16:00.000     41939.3292      6953.1503      -173.1250   1   8   0.0005   0.0004   0.0011  -0.0002   0.0001   0.0004   0.00  171.8
2020/05/25 02:16:30.000     41939.3291      6953.1502      -173.1252   1   8   0.0005   0.0004   0.0011  -0.0002   0.0001   0.0004   0.00  171.5
2020/05/25 02:17:00.000     41939.3290      6953.1500      -173.1254   1   8   0.0005   0.0004   0.0011  -0.0002   0.0001   0.0004   0.00  170.9
2020/05/25 02:17:30.000     41939.3289      6953.1498      -173.1256   1   8   0.0005   0.0004   0.0011  -0.0002   0.0001   0.0004   0.00  169.2
2020/05/25 02:18:00.000     41939.3288      6953.1497      -173.1258   1   8   0.0005   0.0004   0.0011  -0.0002   0.0001   0.0004   0.00  165.9
2020/05/25 02:18:30.000     41939.3287      6953.1496      -173.1261   1   8   0.0005   0.0004   0.0011  -0.0002   0.0001   0.0004   0.00  163.3
2020/05/25 02:19:00.000     41939.3285      6953.1494      -173.1264   1   8   0.0005   0.0004   0.0011  -0.0002   0.0001   0.0004   0.00  160.0
2020/05/25 02:19:30.000     41939.3284      6953.1493      -173.1266   1   8   0.0005   0.0004   0.0011  -0.0002   0.0001   0.0003   0.00  156.8
2020/05/25 02:20:00.000     41939.3283      6953.1491      -173.1268   1   8   0.0005   0.0004   0.0011  -0.0002   0.0001   0.0003   0.00  153.8
2020/05/25 02:20:30.000     41939.3282      6953.1490      -173.1271   1   8   0.0005   0.0004   0.0011  -0.0002   0.0001   0.0003   0.00  150.7
2020/05/25 02:21:00.000     41939.3282      6953.1489      -173.1273   1   8   0.0005   0.0004   0.0011  -0.0002   0.0000   0.0003   0.00  148.7
2020/05/25 02:21:30.000     41939.3281      6953.1487      -173.1274   1   8   0.0005   0.0004   0.0011  -0.0002   0.0000   0.0003   0.00  148.2
2020/05/25 02:22:00.000     41939.3281      6953.1486      -173.1275   1   8   0.0005   0.0004   0.0011  -0.0002   0.0000   0.0003   0.00  147.8
2020/05/25 02:22:30.000     41939.3280      6953.1485      -173.1275   1   8   0.0005   0.0004   0.0011  -0.0002   0.0000   0.0003   0.00  147.7
2020/05/25 02:23:00.000     41939.3279      6953.1484      -173.1276   1   8   0.0005   0.0004   0.0011  -0.0002   0.0000   0.0003   0.00  147.0
2020/05/25 02:23:30.000     41939.3279      6953.1483      -173.1277   1   8   0.0005   0.0004   0.0011  -0.0002   0.0000   0.0003   0.00  145.7
2020/05/25 02:24:00.000     41939.3278      6953.1481      -173.1279   1   8   0.0005   0.0004   0.0010  -0.0002   0.0000   0.0003   0.00  144.1
2020/05/25 02:24:30.000     41939.3277      6953.1479      -173.1281   1   8   0.0005   0.0004   0.0010  -0.0002   0.0000   0.0003   0.00  143.2
2020/05/25 02:25:00.000     41939.3277      6953.1477      -173.1282   1   8   0.0005   0.0004   0.0010  -0.0002   0.0000   0.0003   0.00  142.6
2020/05/25 02:25:30.000     41939.3277      6953.1475      -173.1285   1   8   0.0005   0.0004   0.0010  -0.0002   0.0000   0.0003   0.00  141.1
2020/05/25 02:26:00.000     41939.3277      6953.1472      -173.1287   1   8   0.0005   0.0004   0.0010  -0.0002  -0.0000   0.0003   0.00  140.0
2020/05/25 02:26:30.000     41939.3277      6953.1470      -173.1290   1   8   0.0005   0.0004   0.0010  -0.0002  -0.0000   0.0003   0.00  138.6
2020/05/25 02:27:00.000     41939.3277      6953.1466      -173.1294   1   8   0.0005   0.0004   0.0010  -0.0002  -0.0000   0.0003   0.00  136.7
2020/05/25 02:27:30.000     41939.3277      6953.1463      -173.1298   1   8   0.0005   0.0004   0.0010  -0.0002  -0.0000   0.0003   0.00  133.9
2020/05/25 02:28:00.000     41939.3277      6953.1460      -173.1302   1   8   0.0005   0.0004   0.0010  -0.0002  -0.0000   0.0003   0.00  130.8
2020/05/25 02:28:30.000     41939.3276      6953.1457      -173.1308   1   8   0.0005   0.0004   0.0010  -0.0002  -0.0000   0.0003   0.00  126.7
2020/05/25 02:29:00.000     41939.3276      6953.1454      -173.1313   1   8   0.0005   0.0004   0.0010  -0.0002  -0.0000   0.0003   0.00  123.8
2020/05/25 02:29:30.000     41939.3276      6953.1451      -173.1317   1   8   0.0005   0.0004   0.0010  -0.0002  -0.0000   0.0003   0.00  121.0
2020/05/25 02:30:00.000     41939.3276      6953.1448      -173.1320   1   8   0.0005   0.0004   0.0010  -0.0002  -0.0000   0.0003   0.00  120.1
2020/05/25 02:30:30.000     41939.3276      6953.1445      -173.1322   1   8   0.0005   0.0004   0.0010  -0.0002  -0.0000   0.0003   0.00  120.3
2020/05/25 02:31:00.000     41939.3276      6953.1442      -173.1322   1   8   0.0005   0.0004   0.0010  -0.0002  -0.0001   0.0003   0.00  122.2
2020/05/25 02:31:30.000     41939.3276      6953.1439      -173.1321   1   8   0.0005   0.0004   0.0010  -0.0002  -0.0001   0.0003   0.00  124.6
2020/05/25 02:32:00.000     41939.3276      6953.1437      -173.1320   1   8   0.0005   0.0004   0.0010  -0.0002  -0.0001   0.0003   0.00  126.4
2020/05/25 02:32:30.000     41939.3276      6953.1435      -173.1318   1   8   0.0005   0.0004   0.0010  -0.0002  -0.0001   0.0003   0.00  129.9
2020/05/25 02:33:00.000     41939.3277      6953.1433      -173.1316   1   8   0.0005   0.0004   0.0010  -0.0002  -0.0001   0.0003   0.00  135.5
2020/05/25 02:33:30.000     41939.3278      6953.1432      -173.1313   1   8   0.0005   0.0004   0.0010  -0.0002  -0.0001   0.0003   0.00  143.2
2020/05/25 02:34:00.000     41939.3279      6953.1431      -173.1310   1   8   0.0005   0.0004   0.0010  -0.0002  -0.0001   0.0003   0.00  151.3
2020/05/25 02:34:30.000     41939.3280      6953.1431      -173.1306   1   8   0.0005   0.0004   0.0010  -0.0002  -0.0001   0.0003   0.00  161.4
2020/05/25 02:35:00.000     41939.3282      6953.1431      -173.1302   1   8   0.0005   0.0004   0.0010  -0.0002  -0.0001   0.0003   0.00  172.8
2020/05/25 02:35:30.000     41939.3284      6953.1431      -173.1299   1   8   0.0005   0.0004   0.0010  -0.0002  -0.0001   0.0003   0.00  183.0
2020/05/25 02:36:00.000     41939.3285      6953.1430      -173.1295   1   8   0.0005   0.0004   0.0010  -0.0002  -0.0001   0.0003   0.00  190.9
2020/05/25 02:36:30.000     41939.3288      6953.1430      -173.1291   1   8   0.0005   0.0004   0.0010  -0.0002  -0.0001   0.0003   0.00  198.1
2020/05/25 02:37:00.000     41939.3289      6953.1430      -173.1288   1   8   0.0005   0.0004   0.0010  -0.0002  -0.0001   0.0003   0.00  202.2
2020/05/25 02:37:30.000     41939.3291      6953.1430      -173.1285   1   8   0.0005   0.0004   0.0010  -0.0002  -0.0001   0.0003   0.00  206.7
2020/05/25 02:38:00.000     41939.3292      6953.1429      -173.1282   1   8   0.0005   0.0004   0.0010  -0.0002  -0.0001   0.0003   0.00  211.6
2020/05/25 02:38:30.000     41939.3299      6953.1437      -173.1272   2   9   0.0005   0.0004   0.0010  -0.0002  -0.0001   0.0004   0.00    1.0
2020/05/25 02:39:00.000     41939.3299      6953.1437      -173.1270   2   9   0.0005   0.0004   0.0010  -0.0002  -0.0001   0.0004   0.00    1.0
2020/05/25 02:39:30.000     41939.3300      6953.1437      -173.1269   2   9   0.0005   0.0004   0.0010  -0.0002  -0.0001   0.0003   0.00    1.0
2020/05/25 02:40:00.000     41939.3300      6953.1437      -173.1267   2   9   0.0005   0.0004   0.0010  -0.0002  -0.0001   0.0003   0.00    1.0
2020/05/25 02:40:30.000     41939.3300      6953.1436      -173.1266   2   9   0.0005   0.0004   0.0010  -0.0002  -0.0001   0.0003   0.00    1.1
2020/05/25 02:41:00.000     41939.3300      6953.1437      -173.1265   2   9   0.0005   0.0004   0.0010  -0.0002  -0.0001   0.0003   0.00    1.1
2020/05/25 02:41:30.000     41939.3300      6953.1437      -173.1264   2   9   0.0005   0.0004   0.0010  -0.0002  -0.0001   0.0003   0.00    1.2
2020/05/25 02:42:00.000     41939.3300      6953.1438      -173.1264   2   9   0.0005   0.0004   0.0010  -0.0002  -0.0001   0.0003   0.00    1.3
2020/05/25 02:42:30.000     41939.3300      6953.1438      -173.1263   2   9   0.0005   0.0004   0.0010  -0.0002  -0.0001   0.0003   0.00    1.4
2020/05/25 02:43:00.000     41939.3300      6953.1439      -173.1262   2   9   0.0005   0.0004   0.0010  -0.0002  -0.0001   0.0003   0.00    1.6
2020/05/25 02:43:30.000     41939.3300      6953.1440      -173.1261   2   9   0.0005   0.0004   0.0010  -0.0002  -0.0001   0.0003   0.00    1.8
2020/05/25 02:44:00.000     41939.3300      6953.1440      -173.1260   2   9   0.0005   0.0004   0.0010  -0.0002  -0.0001   0.0003   0.00    2.1
2020/05/25 02:44:30.000     41939.3301      6953.1441      -173.1258   2   9   0.0005   0.0004   0.0010  -0.0002  -0.0001   0.0003   0.00    2.2
2020/05/25 02:45:00.000     41939.3301      6953.1442      -173.1257   2   9   0.0005   0.0004   0.0010  -0.0002  -0.0001   0.0003   0.00    2.3
2020/05/25 02:45:30.000     41939.3301      6953.1443      -173.1255   2   9   0.0005   0.0004   0.0010  -0.0002  -0.0001   0.0003   0.00    2.3
2020/05/25 02:46:00.000     41939.3302      6953.1443      -173.1254   2   9   0.0005   0.0004   0.0010  -0.0002  -0.0001   0.0003   0.00    2.3
2020/05/25 02:46:30.000     41939.3302      6953.1443      -173.1252   2   9   0.0005   0.0004   0.0010  -0.0002  -0.0001   0.0003   0.00    2.3
2020/05/25 02:47:00.000     41939.3302      6953.1443      -173.1250   2   9   0.0005   0.0004   0.0010  -0.0002  -0.0001   0.0003   0.00    2.2
2020/05/25 02:47:30.000     41939.3303      6953.1443      -173.1249   2   9   0.0005   0.0004   0.0010  -0.0002  -0.0001   0.0003   0.00    2.1
2020/05/25 02:48:00.000     41939.3304      6953.1443      -173.1248   2   9   0.0005   0.0004   0.0010  -0.0002  -0.0001   0.0003   0.00    2.1
2020/05/25 02:48:30.000     41939.3304      6953.1443      -173.1247   2   9   0.0005   0.0004   0.0010  -0.0002  -0.0001   0.0003   0.00    2.1
2020/05/25 02:49:00.000     41939.3304      6953.1443      -173.1246   2   9   0.0005   0.0004   0.0010  -0.0002  -0.0001   0.0003   0.00    2.1
2020/05/25 02:49:30.000     41939.3304      6953.1443      -173.1245   2   9   0.0005   0.0004   0.0010  -0.0002  -0.0001   0.0003   0.00    2.1
2020/05/25 02:50:00.000     41939.3304      6953.1443      -173.1244   2   9   0.0005   0.0004   0.0010  -0.0002  -0.0001   0.0003   0.00    2.1
2020/05/25 02:50:30.000     41939.3304      6953.1442      -173.1243   2   9   0.0005   0.0004   0.0010  -0.0002  -0.0001   0.0003   0.00    2.1
2020/05/25 02:51:00.000     41939.3304      6953.1442      -173.1242   2   9   0.0005   0.0004   0.0010  -0.0002  -0.0001   0.0003   0.00    2.0
2020/05/25 02:51:30.000     41939.3304      6953.1443      -173.1241   2   9   0.0005   0.0004   0.0010  -0.0002  -0.0001   0.0003   0.00    2.0
2020/05/25 02:52:00.000     41939.3305      6953.1443      -173.1239   2   9   0.0005   0.0004   0.0010  -0.0002  -0.0001   0.0003   0.00    1.9
2020/05/25 02:52:30.000     41939.3305      6953.1443      -173.1238   2   9   0.0005   0.0004   0.0010  -0.0002  -0.0001   0.0003   0.00    1.9
2020/05/25 02:53:00.000     41939.3305      6953.1443      -173.1236   2   9   0.0005   0.0004   0.0010  -0.0002  -0.0001   0.0003   0.00    1.8
2020/05/25 02:53:30.000     41939.3305      6953.1443      -173.1234   2   9   0.0005   0.0004   0.0010  -0.0002  -0.0001   0.0003   0.00    1.9
2020/05/25 02:54:00.000     41939.3306      6953.1443      -173.1232   2   9   0.0005   0.0004   0.0010  -0.0002  -0.0001   0.0003   0.00    1.9
2020/05/25 02:54:30.000     41939.3306      6953.1444      -173.1229   2   9   0.0005   0.0004   0.0010  -0.0002  -0.0001   0.0003   0.00    1.9
2020/05/25 02:55:00.000     41939.3306      6953.1444      -173.1227   2   9   0.0005   0.0004   0.0010  -0.0002  -0.0001   0.0003   0.00    1.9
2020/05/25 02:55:30.000     41939.3306      6953.1445      -173.1225   2   9   0.0005   0.0004   0.0010  -0.0002  -0.0001   0.0003   0.00    1.9
2020/05/25 02:56:00.000     41939.3306      6953.1445      -173.1224   2   9   0.0005   0.0004   0.0010  -0.0002  -0.0001   0.0003   0.00    1.9
2020/05/25 02:56:30.000     41939.3307      6953.1446      -173.1222   2   9   0.0005   0.0004   0.0010  -0.0002  -0.0001   0.0003   0.00    2.0
2020/05/25 02:57:00.000     41939.3307      6953.1446      -173.1221   2   9   0.0005   0.0004   0.0010  -0.0002  -0.0001   0.0003   0.00    2.1
2020/05/25 02:57:30.000     41939.3308      6953.1447      -173.1220   2   9   0.0005   0.0004   0.0010  -0.0002  -0.0001   0.0003   0.00    2.2
2020/05/25 02:58:00.000     41939.3308      6953.1448      -173.1219   2   9   0.0005   0.0004   0.0010  -0.0002  -0.0001   0.0003   0.00    2.3
2020/05/25 02:58:30.000     41939.3309      6953.1448      -173.1218   2   9   0.0005   0.0004   0.0010  -0.0002  -0.0001   0.0003   0.00    2.4
2020/05/25 02:59:00.000     41939.3309      6953.1448      -173.1217   2   9   0.0005   0.0004   0.0010  -0.0002  -0.0001   0.0003   0.00    2.6
2020/05/25 02:59:30.000     41939.3310      6953.1448      -173.1216   2   9   0.0005   0.0004   0.0010  -0.0002  -0.0001   0.0003   0.00    2.7
2020/05/25 03:00:00.000     41939.3311      6953.1448      -173.1215   2   9   0.0005   0.0004   0.0010  -0.0002  -0.0001   0.0003   0.00    2.9
2020/05/25 03:00:30.000     41939.3311      6953.1448      -173.1213   2   9   0.0005   0.0004   0.0010  -0.0002  -0.0001   0.0003   0.00    3.0
2020/05/25 03:01:00.000     41939.3336      6953.1427      -173.1135   1   9   0.0004   0.0004   0.0009  -0.0002  -0.0001   0.0003   0.00    3.1
2020/05/25 03:01:30.000     41939.3338      6953.1427      -173.1131   1   9   0.0004   0.0004   0.0009  -0.0002  -0.0001   0.0003   0.00    3.2
2020/05/25 03:02:00.000     41939.3339      6953.1427      -173.1127   1   9   0.0004   0.0004   0.0009  -0.0002  -0.0001   0.0003   0.00    3.3
2020/05/25 03:02:30.000     41939.3340      6953.1428      -173.1122   1   9   0.0004   0.0004   0.0009  -0.0002  -0.0001   0.0003   0.00    3.5
2020/05/25 03:03:00.000     41939.3342      6953.1429      -173.1117   1   9   0.0004   0.0004   0.0009  -0.0002  -0.0001   0.0003   0.00    3.6
2020/05/25 03:03:30.000     41939.3343      6953.1429      -173.1114   1   9   0.0004   0.0004   0.0009  -0.0002  -0.0001   0.0003   0.00    3.7
2020/05/25 03:04:00.000     41939.3344      6953.1430      -173.1110   1   9   0.0004   0.0004   0.0009  -0.0002  -0.0001   0.0003   0.00    3.8
2020/05/25 03:04:30.000     41939.3346      6953.1431      -173.1107   1   9   0.0004   0.0004   0.0009  -0.0002  -0.0001   0.0003   0.00    3.9
2020/05/25 03:05:00.000     41939.3348      6953.1432      -173.1104   1   9   0.0004   0.0004   0.0009  -0.0002  -0.0001   0.0003   0.00    4.1
2020/05/25 03:05:30.000     41939.3350      6953.1433      -173.1101   1   9   0.0004   0.0004   0.0009  -0.0002  -0.0001   0.0003   0.00    4.3
2020/05/25 03:06:00.000     41939.3351      6953.1433      -173.1099   1   9   0.0004   0.0004   0.0009  -0.0002  -0.0001   0.0003   0.00    6.2
2020/05/25 03:06:30.000     41939.3353      6953.1433      -173.1098   1   9   0.0004   0.0004   0.0009  -0.0002  -0.0001   0.0003   0.00    8.3
2020/05/25 03:07:00.000     41939.3355      6953.1434      -173.1098   1   9   0.0004   0.0004   0.0009  -0.0002  -0.0001   0.0003   0.00   10.8
2020/05/25 03:07:30.000     41939.3357      6953.1434      -173.1098   1   9   0.0004   0.0004   0.0009  -0.0002  -0.0001   0.0003   0.00   13.4
2020/05/25 03:08:00.000     41939.3360      6953.1435      -173.1097   1   9   0.0004   0.0004   0.0009  -0.0002  -0.0001   0.0003   0.00   15.9
2020/05/25 03:08:30.000     41939.3362      6953.1435      -173.1097   1   9   0.0004   0.0004   0.0009  -0.0002  -0.0001   0.0003   0.00   18.5
2020/05/25 03:09:00.000     41939.3364      6953.1435      -173.1097   1   9   0.0004   0.0004   0.0009  -0.0002  -0.0001   0.0003   0.00   21.4
2020/05/25 03:09:30.000     41939.3366      6953.1435      -173.1099   1   9   0.0004   0.0004   0.0009  -0.0002  -0.0001   0.0003   0.00   24.3
2020/05/25 03:10:00.000     41939.3367      6953.1435      -173.1100   1   9   0.0004   0.0004   0.0009  -0.0002  -0.0001   0.0003   0.00   27.4
2020/05/25 03:10:30.000     41939.3369      6953.1434      -173.1101   1   9   0.0004   0.0004   0.0009  -0.0002  -0.0001   0.0003   0.00   30.3
2020/05/25 03:11:00.000     41939.3370      6953.1434      -173.1102   1   9   0.0004   0.0004   0.0009  -0.0002  -0.0001   0.0003   0.00   33.6
2020/05/25 03:11:30.000     41939.3371      6953.1433      -173.1102   1   9   0.0004   0.0004   0.0009  -0.0002  -0.0001   0.0003   0.00   36.4
2020/05/25 03:12:00.000     41939.3373      6953.1433      -173.1103   1   9   0.0004   0.0004   0.0009  -0.0002  -0.0001   0.0003   0.00   39.0
2020/05/25 03:12:30.000     41939.3374      6953.1433      -173.1104   1   9   0.0004   0.0004   0.0009  -0.0002  -0.0001   0.0003   0.00   41.6
2020/05/25 03:13:00.000     41939.3375      6953.1433      -173.1106   1   9   0.0004   0.0004   0.0009  -0.0002  -0.0001   0.0003   0.00   45.0
2020/05/25 03:13:30.000     41939.3375      6953.1434      -173.1108   1   9   0.0004   0.0004   0.0009  -0.0002  -0.0001   0.0003   0.00   49.4
2020/05/25 03:14:00.000     41939.3376      6953.1434      -173.1110   1   9   0.0004   0.0004   0.0009  -0.0002  -0.0001   0.0003   0.00   54.0
2020/05/25 03:14:30.000     41939.3376      6953.1434      -173.1112   1   9   0.0004   0.0004   0.0009  -0.0002  -0.0001   0.0003   0.00   58.8
2020/05/25 03:15:00.000     41939.3356      6953.1440      -173.1148   2  10   0.0004   0.0004   0.0009  -0.0002  -0.0001   0.0003   0.00    1.1
2020/05/25 03:15:30.000     41939.3357      6953.1440      -173.1150   2  10   0.0004   0.0004   0.0009  -0.0002  -0.0001   0.0003   0.00    1.3
2020/05/25 03:16:00.000     41939.3357      6953.1439      -173.1152   2  10   0.0004   0.0004   0.0009  -0.0002  -0.0001   0.0003   0.00    1.4
2020/05/25 03:16:30.000     41939.3357      6953.1438      -173.1154   2  10   0.0004   0.0004   0.0009  -0.0002  -0.0001   0.0003   0.00    1.5
2020/05/25 03:17:00.000     41939.3357      6953.1438      -173.1156   2  10   0.0004   0.0004   0.0009  -0.0002  -0.0001   0.0003   0.00    1.6
2020/05/25 03:17:30.000     41939.3357      6953.1437      -173.1159   2  10   0.0004   0.0004   0.0009  -0.0002  -0.0001   0.0003   0.00    1.8
2020/05/25 03:18:00.000     41939.3357      6953.1436      -173.1161   2  10   0.0004   0.0004   0.0009  -0.0002  -0.0001   0.0003   0.00    1.9
2020/05/25 03:18:30.000     41939.3356      6953.1435      -173.1164   2  10   0.0004   0.0004   0.0009  -0.0002  -0.0001   0.0003   0.00    2.0
2020/05/25 03:19:00.000     41939.3356      6953.1434      -173.1167   2  10   0.0004   0.0004   0.0009  -0.0002  -0.0001   0.0003   0.00    2.2
2020/05/25 03:19:30.000     41939.3356      6953.1433      -173.1169   2  10   0.0004   0.0004   0.0009  -0.0002  -0.0001   0.0003   0.00    2.3
2020/05/25 03:20:00.000     41939.3356      6953.1432      -173.1171   2  10   0.0004   0.0004   0.0009  -0.0002  -0.0001   0.0003   0.00    2.5
2020/05/25 03:20:30.000     41939.3357      6953.1432      -173.1172   2  10   0.0004   0.0004   0.0009  -0.0002  -0.0001   0.0003   0.00    2.7
2020/05/25 03:21:00.000     41939.3357      6953.1431      -173.1172   2  10   0.0004   0.0004   0.0009  -0.0002  -0.0001   0.0003   0.00    2.9
2020/05/25 03:21:30.000     41939.3374      6953.1426      -173.1161   1  10   0.0004   0.0004   0.0009  -0.0001  -0.0001   0.0002   0.00    3.1
2020/05/25 03:22:00.000     41939.3374      6953.1426      -173.1161   1  10   0.0004   0.0004   0.0009  -0.0001  -0.0001   0.0002   0.00    3.3
2020/05/25 03:22:30.000     41939.3375      6953.1427      -173.1161   1  10   0.0004   0.0003   0.0009  -0.0001  -0.0001   0.0002   0.00    3.6
2020/05/25 03:23:00.000     41939.3375      6953.1427      -173.1161   1  10   0.0004   0.0003   0.0009  -0.0001  -0.0001   0.0002   0.00    3.9
2020/05/25 03:23:30.000     41939.3375      6953.1428      -173.1160   1  10   0.0004   0.0003   0.0009  -0.0001  -0.0001   0.0002   0.00    4.1
2020/05/25 03:24:00.000     41939.3375      6953.1428      -173.1159   1  10   0.0004   0.0003   0.0009  -0.0001  -0.0001   0.0002   0.00    4.3
2020/05/25 03:24:30.000     41939.3374      6953.1429      -173.1158   1  10   0.0004   0.0003   0.0009  -0.0001  -0.0001   0.0002   0.00    4.6
2020/05/25 03:25:00.000     41939.3373      6953.1430      -173.1156   1  10   0.0004   0.0003   0.0009  -0.0001  -0.0001   0.0002   0.00    4.7
2020/05/25 03:25:30.000     41939.3373      6953.1430      -173.1152   1  10   0.0004   0.0003   0.0008  -0.0001  -0.0001   0.0002   0.00    4.8
