     2.11           OBSERVATION DATA    M (MIXED)           RINEX VERSION / TYPE
teqc  2011Oct11                         20200526 04:00:23UTCPGM / RUN BY / DATE
HKWS                                                        MARKER NAME
23019M001                                                   MARKER NUMBER
SMO                 Lands Department HKSAR                  OBSERVER / AGENCY
1870257             LEICA GR50          4.31/7.403          REC # / TYPE / VERS
725198              LEIAR25.R4      LEIT                    ANT # / TYPE
 -2430579.0108  5374285.6738  2418956.3331                  APPROX POSITION XYZ
        0.0083        0.0000        0.0000                  ANTENNA: DELTA H/E/N
     1     1                                                WAVELENGTH FACT L1/2
     6    C1    L1    P2    L2    C5    L5                  # / TYPES OF OBSERV
    30.0000                                                 INTERVAL
    18                                                      LEAP SECONDS
Linux 2.4.21-27.ELsmp|Opteron|gcc|Linux x86_64|=+           COMMENT
Spider v7.4.1.8151  SMO                 2020 05 26 00:14    COMMENT
BIT 2 OF LLI FLAGS DATA COLLECTED UNDER A/S CONDITION       COMMENT
SNR is mapped to RINEX snr flag value [1-9]                 COMMENT
LX:    >= 25dBHz -> 1; 26-27dBHz -> 2; 28-31dBHz -> 3       COMMENT
       32-35dBHz -> 4; 36-38dBHz -> 5; 39-41dBHz -> 6       COMMENT
       42-44dBHz -> 7; 45-48dBHz -> 8; >= 49dBHz -> 9       COMMENT
Forced Modulo Decimation to 30 seconds                      COMMENT
  2020     5    25     0     0    0.0000000     GPS         TIME OF FIRST OBS
                                                            END OF HEADER
 20  5 25  0  0  0.0000000  0 22G03G04G08G09G11G14G16G18G21G22G26G27
                                G31R06R07R08R09R10R16R18R19R20
  24206915.100   127208178.091 7  24206917.860    99123257.10947  24206918.180
  94993120.168 8
  21585819.680   113434258.470 8  21585820.460    88390331.10848  21585823.120
  84707409.459 9
  22059091.960   115921319.919 8  22059093.940    90328307.13048  22059092.080
  86564623.624 9
  24423850.040   128348185.688 7  24423851.660   100011579.92947  24423851.820
  95844436.587 8
  25431444.460   133643139.267 6  25431445.440   104137520.41944

  23124858.080   121521924.473 8  23124858.320    94692399.87046

  20762545.640   109107898.866 9  20762544.020    85019126.60148

  25469418.460   133842693.456 7  25469419.540   104293012.14945  25469424.640
  99947491.457 7
  24851389.460   130594931.997 7  24851389.820   101762293.84145

  24675733.700   129671836.836 8  24675731.080   101042968.43746

  22130789.940   116298071.318 8  22130792.580    90621871.13848  22130790.500
  86845953.923 9
  20465775.820   107548373.028 9  20465777.520    83803919.96149  20465777.000
  80312089.258 9
  22778364.020   119701086.534 9  22778363.340    93273553.19047

  22774532.900   121529264.616 7

  20638113.880   110477443.419 9  20638113.920    85926893.390 8

  21870867.600   117117518.762 9  21870868.480    91091398.198 7

  21149059.860   112934786.872 9  21149060.780    87838165.916 8

  21996320.980   117252748.954 8

  23650088.380   126334486.648 7  23650091.320    98260145.486 4

  24235754.080   129372090.965 7  24235759.060   100622730.745 5

  21409187.840   114524733.489 5  21409189.060    89074790.928 7

  21472772.200   114824563.232 6  21472776.040    89308011.399 8

 20  5 25  0  0 30.0000000  0 22G03G04G08G09G11G14G16G18G21G22G26G27
                                G31R06R07R08R09R10R16R18R19R20
  24217350.040   127263015.322 7  24217352.940    99165987.44147  24217353.140
  95034070.077 8
  21574536.120   113374962.550 8  21574536.740    88344126.50748  21574539.420
  84663130.055 9
  22041001.720   115826253.545 9  22041003.400    90254229.42249  22041001.640
  86493632.493 9
  24405528.320   128251903.254 7  24405529.660    99936554.66447  24405529.920
  95772537.398 8
  25414536.400   133554288.436 6  25414537.500   104068286.00944

  23144121.720   121623155.403 8  23144122.020    94771281.10046

  20769252.200   109143141.735 9  20769250.540    85046588.57148

  25468204.500   133836314.634 6  25468205.860   104288041.67144  25468210.440
  99942728.088 6
  24851964.600   130597954.404 7  24851964.760   101764649.04845

  24685531.260   129723321.863 8  24685528.540   101083086.62445

  22142729.420   116360812.852 8  22142731.940    90670760.62548  22142730.080
  86892806.346 9
  20456630.460   107500314.055 9  20456632.080    83766471.40949  20456631.660
  80276201.068 9
  22785982.460   119741120.887 9  22785981.560    93304748.77647

  22797153.800   121649974.527 7

  20649542.100   110538621.040 9  20649542.520    85974475.963 8

  21863170.500   117076299.609 9  21863170.980    91059338.878 7

  21149601.580   112937679.336 9  21149602.540    87840415.591 8

  21991089.820   117224862.514 8

  23658427.460   126379033.385 6  23658430.280    98294792.914 4

  24252855.620   129463379.776 7  24252860.400   100693733.089 5

  21411343.660   114536266.204 5  21411344.900    89083760.827 7

  21454311.400   114725845.343 6  21454315.260    89231230.846 8

 20  5 25  0  1  0.0000000  0 22G03G04G08G09G11G14G16G18G21G22G26G27
                                G31R06R07R08R09R10R16R18R19R20
  24227801.420   127317937.605 7  24227804.100    99208784.00948  24227804.240
  95075083.453 8
  21563340.220   113316127.554 8  21563340.680    88298281.06748  21563343.500
  84619194.856 9
  22022971.000   115731500.896 8  22022972.640    90180396.17948  22022970.780
  86422875.635 9
  24387247.840   128155837.695 8  24387248.820    99861698.39348  24387249.180
  95700800.158 8
  25397590.580   133465237.136 6  25397590.680   103998895.38545

  23163427.940   121724609.867 8  23163428.240    94850336.47946

  20776003.940   109178623.001 9  20776002.460    85074236.31148

  25467060.060   133830301.486 5  25467061.560   104283356.13145  25467065.940
  99938237.744 7
  24852604.060   130601315.399 7  24852604.600   101767268.04545

  24695308.820   129774701.325 8  24695305.820   101123122.52345

  22154671.980   116423570.349 8  22154674.440    90719662.53148  22154672.680
  86939670.665 9
  20447594.160   107452828.012 9  20447595.820    83729469.30149  20447595.340
  80240740.717 9
  22793635.100   119781335.335 9  22793634.320    93336084.68047

  22819775.280   121770686.003 7

  20661082.060   110600395.641 9  20661082.540    86022522.865 8

  21855604.160   117035781.104 9  21855604.340    91027824.508 7

  21150136.980   112940539.837 9  21150138.120    87842640.417 8

  21985851.520   117196939.726 8

  23666760.340   126423547.435 7  23666763.620    98329414.936 4

  24270043.900   129555131.189 6  24270048.180   100765095.264 5

  21413641.460   114548556.390 6  21413642.560    89093319.864 7

  21435917.680   114627485.583 6  21435921.480    89154728.823 8

 20  5 25  0  1 30.0000000  0 22G03G04G08G09G11G14G16G18G21G22G26G27
                                G31R06R07R08R09R10R16R18R19R20
  24238268.980   127372944.526 7  24238271.760    99251646.50047  24238271.660
  95116159.977 8
  21552232.980   113257758.109 8  21552233.340    88252798.37748  21552236.080
  84575607.266 9
  22005000.760   115637066.797 9  22005002.520    90106811.15048  22005000.640
  86352356.648 9
  24369009.500   128059993.996 8  24369010.300    99787014.99348  24369010.520
  95629228.576 8
  25380607.420   133375989.881 7  25380607.160   103929352.11744

  23182776.880   121826288.137 8  23182777.000    94929566.27645

  20782801.000   109214342.878 9  20782799.720    85102069.98148

  25465985.740   133824657.746 5  25465987.660   104278958.47344  25465991.780
  99934023.338 6
  24853308.880   130605018.780 7  24853308.980   101770153.84444

  24705065.760   129825975.082 7  24705062.620   101163076.05946

  22166617.680   116486344.982 8  22166620.240    90768577.79748  22166618.520
  86986547.789 9
  20438667.880   107405919.075 9  20438669.440    83692916.88749  20438668.760
  80205711.326 9
  22801322.700   119821733.233 9  22801321.680    93367563.52647

  22842396.440   121891397.248 7

  20672733.380   110662766.366 9  20672733.980    86071033.429 8

  21848169.160   116995966.669 9  21848169.280    90996857.733 7

  21150667.000   112943371.438 9  21150668.400    87844842.770 8

  21980606.680   117168982.028 8

  23675088.240   126468032.462 7  23675091.280    98364014.392 4

  24287318.600   129647344.318 7  24287322.600   100836816.460 5

  21416080.960   114561606.383 5  21416082.020    89103469.861 7

  21417592.040   114529490.910 6  21417595.960    89078510.781 8

 20  5 25  0  2  0.0000000  0 22G03G04G08G09G11G14G16G18G21G22G26G27
                                G31R06R07R08R09R10R16R18R19R20
  24248752.020   127428032.908 7  24248754.820    99294572.42047  24248754.520
  95157297.305 8
  21541214.480   113199856.076 8  21541214.880    88207679.91248  21541217.640
  84532368.737 9
  21987091.560   115542953.779 8  21987093.480    90033476.32048  21987091.640
  86282077.433 9
  24350813.540   127964374.524 7  24350814.520    99712506.33647  24350814.560
  95557824.463 7
  25363587.180   133286547.947 6  25363587.500   103859657.14745

  23202167.780   121928187.245 8  23202167.740    95008968.13146

  20789643.160   109250299.247 9  20789641.940    85130087.93348

  25464982.380   133819384.704 6  25464983.660   104274849.63443  25464988.280
  99930085.692 6
  24854078.580   130609064.915 6  24854078.080   101773306.72445

  24714801.740   129877140.711 7  24714799.240   101202945.32945

  22178566.200   116549135.365 8  22178568.940    90817505.32948  22178567.160
  87033436.661 9
  20429851.680   107359588.625 9  20429853.120    83656815.24149  20429852.320
  80171113.912 9
  22809045.320   119862315.231 9  22809044.020    93399185.84847

  22865016.740   122012103.540 7

  20684495.260   110725729.118 9  20684496.040    86120004.425 8

  21840865.440   116956856.964 9  21840865.760    90966439.076 7

  21151191.800   112946173.790 9  21151193.220    87847022.373 8

  21975355.060   117140988.429 8

  23683410.700   126512489.456 7  23683413.700    98398592.060 4

  24304679.340   129740015.737 7  24304683.120   100908894.162 5

  21418662.580   114575416.303 5  21418663.700    89114210.925 7

  21399335.800   114431866.280 6  21399339.460    89002580.528 8

 20  5 25  0  2 30.0000000  0 22G03G04G08G09G11G14G16G18G21G22G26G27
                                G31R06R07R08R09R10R16R18R19R20
  24259249.620   127483197.690 7  24259252.280    99337557.85447  24259251.980
  95198491.658 8
  21530284.940   113142421.305 8  21530285.380    88162925.53348  21530288.260
  84489479.126 9
  21969243.520   115449162.604 8  21969245.600    89960392.28848  21969243.900
  86212038.568 9
  24332660.340   127868979.639 7  24332661.720    99638172.70347  24332661.240
  95486588.064 7
  25346529.800   133196910.918 7  25346529.960   103789810.13145

  23221599.640   122030302.464 8  23221599.680    95088538.39246

  20796529.720   109286487.702 9  20796528.340    85158286.72548

  25464049.460   133814481.559 6  25464050.800   104271028.98743  25464055.300
  99926424.251 6
  24854913.480   130613453.072 7  24854913.060   101776726.11444

  24724516.360   129928193.691 7  24724514.120   101242726.82245

  22190516.940   116611937.933 8  22190519.820    90866442.35648  22190517.900
  87080334.639 9
  20421145.280   107313836.018 9  20421146.680    83621163.86449  20421145.840
  80136948.014 9
  22816802.440   119903079.490 9  22816801.140    93430950.19747

  22887635.280   122132799.171 7

  20696366.600   110789277.684 9  20696367.600    86169431.068 8

  21833693.360   116918450.879 9  21833693.820    90936567.689 7

  21151710.820   112948944.631 9  21151711.980    87849177.449 8

  21970096.120   117112955.943 8

  23691727.680   126556917.517 7  23691730.660    98433147.210 4

  24322124.880   129833139.682 7  24322128.660   100981323.770 5

  21421385.900   114589984.296 5  21421387.160    89125541.598 7

  21381149.200   114334614.098 6  21381152.900    88926939.946 8

 20  5 25  0  3  0.0000000  0 22G03G04G08G09G11G14G16G18G21G22G26G27
                                G31R06R07R08R09R10R16R18R19R20
  24269761.260   127538435.977 7  24269763.800    99380600.65247  24269763.160
  95239741.022 8
  21519444.800   113085455.667 8  21519445.100    88118536.71448  21519448.060
  84446939.841 9
  21951457.260   115355695.101 8  21951459.220    89887560.44148  21951457.800
  86142241.385 9
  24314550.200   127773811.688 7  24314552.040    99564015.89447  24314551.300
  95415521.117 8
  25329435.540   133107080.490 7  25329435.560   103719812.43045

  23241072.160   122132631.037 8  23241072.160    95168274.92645

  20803460.120   109322905.986 9  20803458.500    85186664.61748

  25463187.360   133809949.538 6  25463188.560   104267497.50745  25463192.660
  99923039.939 6
  24855813.800   130618184.283 7  24855813.740   101780412.83645

  24734209.620   129979131.764 7  24734207.280   101282418.79945

  22202469.760   116674751.231 8  22202472.660    90915387.74048  22202470.660
  87127240.625 9
  20412548.960   107268662.611 9  20412550.320    83585963.81549  20412549.660
  80103214.628 9
  22824594.320   119944026.874 9  22824593.220    93462857.24747

  22910250.940   122253479.786 7

  20708346.640   110853408.126 9  20708347.760    86219310.310 8

  21826653.380   116880749.284 9  21826653.320    90907244.233 7

  21152223.920   112951683.999 9  21152224.920    87851308.055 8

  21964830.040   117084883.339 8

  23700039.540   126601317.380 6  23700042.340    98467680.424 4

  24339654.660   129926712.324 7  24339658.060   101054102.450 5

  21424251.180   114605310.066 6  21424252.340    89137461.656 7

  21363032.760   114237738.477 6  21363036.780    88851592.270 8

 20  5 25  0  3 30.0000000  0 22G03G04G08G09G11G14G16G18G21G22G26G27
                                G31R06R07R08R09R10R16R18R19R20
  24280286.580   127593746.736 7  24280289.060    99423699.95147  24280288.400
  95281044.513 8
  21508694.800   113028963.266 8  21508694.860    88074516.65948  21508697.940
  84404753.955 9
  21933733.620   115262556.537 9  21933735.580    89814984.92449  21933734.100
  86072689.832 9
  24296484.020   127678875.208 7  24296486.300    99490039.45547  24296485.620
  95344627.045 8
  25312305.220   133017060.359 7  25312305.680   103649666.90846

  23260585.120   122235172.200 8  23260585.060    95248177.10745

  20810434.140   109359553.978 9  20810432.420    85215221.50048

  25462396.340   133805791.903 7  25462397.380   104264257.76645  25462401.480
  99919935.197 6
  24856780.160   130623261.517 7  24856780.420   101784369.15044

  24743881.020   130029954.489 7  24743878.640   101322020.88145

  22214424.820   116737576.147 8  22214427.680    90964342.21848  22214425.860
  87174155.327 9
  20404063.580   107224071.959 9  20404064.940    83551217.86049  20404064.340
  80069916.427 9
  22832421.600   119985159.981 9  22832420.600    93494909.00847

  22932863.480   122374143.517 7

  20720435.220   110918118.540 9  20720436.220    86269640.640 8

  21819745.260   116843755.148 9  21819744.800    90878471.016 7

  21152731.600   112954394.098 9  21152732.580    87853415.906 8

  21959556.440   117056772.065 8

  23708346.580   126645692.759 6  23708349.760    98502194.646 5

  24357268.160   130020732.611 7  24357271.360   101127229.278 5

  21427258.360   114621395.504 5  21427259.520    89149972.557 7

  21344988.300   114141246.584 6  21344992.280    88776543.032 8

 20  5 25  0  4  0.0000000  0 22G03G04G08G09G11G14G16G18G21G22G26G27
                                G31R06R07R08R09R10R16R18R19R20
  24290825.000   127649127.006 7  24290827.560    99466853.52347  24290827.320
  95322400.039 8
  21498035.140   112972945.797 8  21498035.060    88030866.68548  21498038.080
  84362922.732 9
  21916072.840   115169748.477 9  21916074.860    89742666.93748  21916073.380
  86003385.088 9
  24278462.400   127584172.503 7  24278464.920    99416245.15647  24278464.320
  95273907.512 8
  25295139.180   132926852.262 7  25295139.700   103579374.91645

  23280138.000   122337923.288 8  23280138.100    95328242.83746

  20817451.240   109396428.990 9  20817449.600    85243955.28648

  25461676.800   133802009.623 7  25461677.640   104261310.56344  25461681.840
  99917110.798 6
  24857812.460   130628685.555 7  24857812.560   101788595.72845

  24753529.880   130080659.425 7  24753527.800   101361531.16645

  22226381.940   116800411.016 8  22226384.660    91013304.42748  22226383.000
  87221077.438 9
  20395689.240   107180065.304 9  20395690.700    83516926.97049  20395690.120
  80037054.315 9
  22840284.360   120026479.179 8  22840283.360    93527105.78647

  22955471.760   122494785.420 7

  20732631.220   110983404.405 9  20732632.020    86320418.537 8

  21812968.800   116807469.052 9  21812968.600    90850248.486 7

  21153233.580   112957074.659 9  21153234.540    87855500.779 8

  21954275.080   117028620.844 8

  23716649.040   126690044.038 6  23716652.480    98536690.108 4

  24374964.440   130115196.497 7  24374967.760   101200701.071 4

  21430407.560   114638240.659 5  21430408.300    89163074.365 7

  21327016.580   114045142.707 6  21327020.340    88701795.587 7

 20  5 25  0  4 30.0000000  0 22G03G04G08G09G11G14G16G18G21G22G26G27
                                G31R06R07R08R09R10R16R18R19R20
  24301375.780   127704572.517 7  24301378.080    99510057.76047  24301378.480
  95363804.078 8
  21487466.000   112917404.515 8  21487465.920    87987587.76648  21487468.980
  84321447.101 9
  21898475.560   115077273.613 9  21898477.580    89670608.58349  21898476.060
  85934329.166 9
  24260485.800   127489705.316 7  24260488.280    99342634.37147  24260487.760
  95203363.857 8
  25277937.600   132836456.989 7  25277937.660   103508937.07145

  23299730.060   122440880.602 8  23299730.300    95408469.28045

  20824510.720   109433528.132 8  20824509.380    85272863.71448

  25461028.440   133798603.280 6  25461029.360   104258656.24745  25461033.260
  99914567.108 6
  24858910.520   130634456.677 7  24858910.820   101793092.78245

  24763155.920   130131243.185 7  24763153.460   101400947.03345

  22238340.580   116863253.809 8  22238343.220    91062272.81148  22238341.620
  87268005.477 9
  20387426.240   107136643.248 9  20387427.720    83483091.60449  20387427.120
  80004628.769 9
  22848182.480   120067984.400 8  22848181.760    93559447.51547

  22978075.280   122615401.131 7

  20744933.640   111049261.462 9  20744934.680    86371640.682 8

  21806324.620   116771891.127 9  21806324.560    90822576.765 7

  21153730.160   112959725.202 9  21153731.020    87857562.314 8

  21948986.180   117000428.017 8

  23724947.160   126734372.046 6  23724950.480    98571167.497 4

  24392743.260   130210100.252 7  24392746.460   101274515.039 5

  21433698.600   114655844.598 5  21433699.080    89176766.312 7

  21309118.020   113949430.531 6  21309121.600    88627352.798 8

 20  5 25  0  5  0.0000000  0 22G03G04G08G09G11G14G16G18G21G22G26G27
                                G31R06R07R08R09R10R16R18R19R20
  24311939.240   127760082.645 7  24311941.240    99553312.37847  24311941.940
  95405256.413 8
  21476988.120   112862343.320 8  21476988.220    87944682.93948  21476991.140
  84280329.965 9
  21880942.180   114985135.891 8  21880944.460    89598812.94348  21880942.900
  85865525.003 9
  24242554.980   127395478.081 7  24242557.380    99269210.59147  24242556.940
  95132999.403 8
  25260701.220   132745878.326 7  25260700.860   103438356.34245

  23319361.200   122544043.318 8  23319361.540    95488855.76145

  20831612.700   109470851.293 8  20831611.700    85301946.71048

  25460451.960   133795576.057 6  25460453.140   104256297.37644  25460457.020
  99912306.472 6
  24860075.060   130640577.692 7  24860075.640   101797862.48445

  24772758.580   130181705.725 8  24772755.860   101440268.44045

  22250300.760   116926105.247 8  22250303.520    91111247.93348  22250301.840
  87314939.969 9
  20379275.040   107093809.157 9  20379276.680    83449714.39949  20379276.020
  79972642.283 9
  22856116.480   120109678.054 8  22856115.900    93591936.07647

  23000673.180   122735987.978 7

  20757342.620   111115687.363 9  20757343.740    86423305.264 8

  21799813.560   116737024.131 9  21799813.340    90795457.988 7

  21154221.700   112962347.739 9  21154222.180    87859602.059 8

  21943689.820   116972194.319 8

  23733241.620   126778679.576 7  23733245.280    98605628.909 4

  24410604.140   130305441.930 7  24410607.160   101348669.612 4

  21437131.940   114674209.196 5  21437132.040    89191049.896 7

  21291293.960   113854116.965 6  21291297.380    88553220.043 8

 20  5 25  0  5 30.0000000  0 22G03G04G08G09G11G14G16G18G21G22G26G27
                                G31R06R07R08R09R10R16R18R19R20
  24322513.420   127815650.675 7  24322515.520    99596612.12947  24322516.420
  95446752.015 8
  21466601.280   112807760.370 8  21466601.540    87902150.76448  21466604.360
  84239569.962 9
  21863472.760   114893334.413 8  21863475.300    89527279.31448  21863473.660
  85796971.945 9
  24224669.820   127301489.539 7  24224671.940    99195972.80547  24224671.560
  95062813.205 8
  25243429.440   132655114.347 6  25243429.040   103367631.22045

  23339030.380   122647405.351 8  23339030.600    95569397.59145

  20838756.360   109508392.978 8  20838755.540    85331199.97248

  25459947.700   133792925.356 7  25459949.140   104254231.87945  25459952.820
  99910327.055 7
  24861305.780   130647045.553 7  24861306.060   101802902.45645

  24782337.100   130232041.019 7  24782334.500   101479490.69245

  22262261.520   116988960.206 8  22262264.480    91160225.77848  22262262.760
  87361877.070 9
  20371235.260   107051560.651 9  20371237.120    83416793.50549  20371236.440
  79941093.091 9
  22864085.680   120151557.242 8  22864085.260    93624569.17347

  23023264.400   122856538.673 7

  20769856.640   111182674.425 9  20769857.580    86475406.301 8

  21793434.560   116702864.889 9  21793434.240    90768889.706 7

  21154706.940   112964938.365 9  21154707.180    87861616.967 8

  21938385.280   116943915.966 8

  23741531.860   126822964.021 7  23741535.140    98640072.394 4

  24428545.680   130401214.299 7  24428548.640   101423159.202 4

  21440706.300   114693330.463 5  21440706.540    89205921.998 7

  21273544.360   113759202.586 6  21273547.740    88479397.777 8

 20  5 25  0  6  0.0000000  0 22G03G04G08G09G11G14G16G18G21G22G26G27
                                G31R06R07R08R09R10R16R18R19R20
  24333098.700   127871278.129 7  24333100.940    99639958.23247  24333101.800
  95488292.032 8
  21456306.780   112753661.998 8  21456306.920    87859996.18848  21456309.800
  84199171.825 9
  21846068.880   114801876.217 8  21846071.400    89456013.18148  21846069.820
  85728675.233 9
  24206831.520   127207746.540 8  24206833.200    99122926.34748  24206832.760
  94992810.345 8
  25226123.440   132564170.834 6  25226122.920   103296766.17644

  23358737.760   122750968.424 8  23358738.100    95650096.05045

  20845942.140   109546154.536 9  20845941.120    85360624.55748

  25459515.740   133790656.844 6  25459517.560   104252464.11744  25459521.460
  99908632.932 6
  24862603.640   130653866.142 7  24862603.560   101808217.23445

  24791891.880   130282251.340 7  24791889.360   101518615.62445

  22274223.680   117051821.970 8  22274226.740    91209208.93448  22274225.000
  87408819.246 9
  20363308.180   107009903.472 9  20363310.040    83384333.37049  20363309.420
  79909985.461 9
  22872091.360   120193627.069 8  22872090.980    93657350.84947

  23045848.840   122977053.310 7

  20782475.320   111250222.950 9  20782476.180    86527944.018 8

  21787188.560   116669418.542 9  21787188.440    90742875.892 7

  21155186.920   112967501.891 9  21155187.000    87863610.800 8

  21933072.440   116915596.016 8

  23749819.000   126867231.375 6  23749821.800    98674502.550 5

  24446568.000   130497418.176 7  24446571.260   101497984.315 5

  21444422.760   114713212.788 5  21444423.220    89221386.054 7

  21255871.140   113664696.479 6  21255874.780    88405893.050 8

 20  5 25  0  6 30.0000000  0 22G03G04G08G09G11G14G16G18G21G22G26G27
                                G31R06R07R08R09R10R16R18R19R20
  24343694.720   127926960.004 7  24343697.060    99683346.67647  24343697.500
  95529872.608 8
  21446104.240   112700048.205 8  21446104.520    87818219.21348  21446107.460
  84159135.559 9
  21828730.280   114710761.425 8  21828732.780    89385014.64348  21828731.340
  85660634.968 9
  24189039.880   127114249.737 7  24189041.180    99050071.74348  24189040.760
  94922991.361 8
  25208783.240   132473048.004 7  25208782.800   103225750.37744

  23378482.480   122854727.570 8  23378482.460    95730947.31245

  20853169.380   109584132.233 9  20853168.000    85390217.56148

  25459156.320   133788769.701 6  25459158.440   104250993.55644  25459162.520
  99907223.613 7
  24863968.300   130661038.117 7  24863968.340   101813805.87844

  24801421.900   130332332.420 7  24801419.320   101557639.81546

  22286186.620   117114687.379 8  22286189.660    91258194.94048  22286188.040
  87455764.164 9
  20355493.640   106968837.075 9  20355495.420    83352333.59049  20355494.800
  79879319.008 9
  22880133.020   120235886.020 8  22880132.600    93690279.89547

  23068425.300   123097525.998 7

  20795197.480   111318326.871 9  20795198.460    86580913.734 8

  21781075.860   116636684.079 9  21781075.540    90717415.767 7

  21155661.640   112970036.527 9  21155661.720    87865582.165 8

  21927750.820   116887231.967 8

  23758102.220   126911480.663 6  23758105.480    98708918.689 4

  24464670.220   130594048.087 7  24464673.240   101573140.873 5

  21448281.000   114733853.774 5  21448281.740    89237440.156 7

  21238274.760   113570601.470 6  21238278.680    88332708.046 8

 20  5 25  0  7  0.0000000  0 22G03G04G08G09G11G14G16G18G21G22G26G27
                                G31R06R07R08R09R10R16R18R19R20
  24354300.600   127982692.905 7  24354302.820    99726774.85947  24354302.940
  95571491.302 8
  21435994.280   112646920.474 8  21435994.620    87776820.97748  21435997.500
  84119462.260 9
  21811457.740   114619992.550 9  21811460.160    89314285.65049  21811458.540
  85592853.022 9
  24171295.240   127021001.219 7  24171296.420    98977410.61747  24171295.940
  94853357.794 8
  25191409.180   132381747.178 7  25191408.720   103154606.89144

  23398263.800   122958679.997 8  23398264.000    95811949.15445

  20860437.380   109622323.539 9  20860435.620    85419977.01348

  25458869.700   133787264.874 6  25458871.960   104249820.86344  25458876.140
  99906099.793 6
  24865399.880   130668562.012 7  24865400.280   101819668.68345

  24810926.740   130382281.403 8  24810924.420   101596561.03745

  22298150.020   117177554.803 8  22298152.980    91307182.53548  22298151.480
  87502710.605 9
  20347791.840   106928362.309 9  20347793.360    83320794.81149  20347792.620
  79849094.346 9
  22888210.680   120278334.234 8  22888210.160    93723356.41547

  23090993.360   123217952.370 7

  20808022.300   111386981.593 9  20808023.780    86634311.843 8

  21775096.100   116604661.322 9  21775095.520    90692509.214 7

  21156130.700   112972542.253 9  21156131.120    87867531.047 8

  21922421.040   116858822.402 8

  23766382.260   126955712.481 6  23766385.880    98743321.233 4

  24482851.420   130691100.287 8  24482854.460   101648625.832 5

  21452280.960   114755252.971 5  21452281.880    89254083.992 7

  21220756.100   113476921.707 6  21220759.960    88259846.033 8

 20  5 25  0  7 30.0000000  0 22G03G04G08G09G11G14G16G18G21G22G26G27
                                G31R06R07R08R09R10R16R18R19R20
  24364915.880   128038476.323 7  24364917.920    99770242.43747  24364917.840
  95613147.723 8
  21425977.560   112594282.847 8  21425977.980    87735804.65048  21425980.960
  84080154.942 9
  21794251.920   114529574.081 9  21794254.140    89243829.71749  21794252.420
  85525332.739 9
  24153598.740   126928005.652 7  24153599.920    98904946.59847  24153599.280
  94783913.121 8
  25174002.080   132290272.537 7  25174001.660   103083327.93144

  23418081.820   123062824.868 7  23418082.220    95893100.93246

  20867745.780   109660728.579 8  20867743.920    85449903.01748

  25458657.020   133786145.748 6  25458659.360   104248948.78144  25458663.200
  99905264.082 6
  24866899.060   130676440.923 7  24866899.740   101825808.15245

  24820406.740   130432098.206 7  24820404.500   101635379.32945

  22310113.960   117240425.159 8  22310116.920    91356172.40048  22310115.460
  87549659.225 9
  20340203.340   106888482.630 9  20340204.580    83289719.74149  20340203.660
  79819314.069 9
  22896324.980   120320974.872 8  22896324.520    93756582.85547

  23113552.080   123338330.385 7

  20820950.140   111456185.416 9  20820951.580    86688137.026 8

  21769249.560   116573353.353 9  21769248.940    90668158.587 7

  21156594.540   112975020.986 9  21156595.440    87869458.933 8

  21917083.040   116830368.807 8

  23774660.120   126999930.458 6  23774663.680    98777712.960 4

  24501111.260   130788573.332 6  24501114.760   101724438.182 4

  21456423.080   114777412.119 5  21456424.600    89271318.896 7

  21203316.520   113383664.238 6  21203320.220    88187312.462 8

 20  5 25  0  8  0.0000000  0 22G03G04G08G09G11G14G16G18G21G22G26G27
                                G31R06R07R08R09R10R16R18R19R20
  24375539.520   128094304.080 7  24375541.600    99813744.54947  24375541.520
  95654837.245 8
  21416054.220   112542134.100 8  21416054.460    87695169.25148  21416057.460
  84041212.681 9
  21777112.700   114439505.958 9  21777114.740    89173646.76049  21777112.960
  85458074.065 9
  24135950.180   126835262.448 7  24135951.440    98832679.23248  24135950.780
  94714656.881 8
  25156561.700   132198622.500 7  25156561.080   103011912.32044

  23437935.780   123167156.765 8  23437935.760    95974398.48645

  20875093.520   109699341.891 8  20875091.760    85479991.30048

  25458517.180   133785410.135 6  25458519.440   104248375.52444  25458523.440
  99904714.690 6
  24868465.840   130684672.918 7  24868466.300   101832222.75144

  24829860.680   130481777.635 7  24829858.340   101674090.52445

  22322077.580   117303294.091 8  22322080.580    91405161.13548  22322079.100
  87596606.755 9
  20332727.540   106849196.177 9  20332728.500    83259106.90849  20332727.780
  79789976.769 9
  22904475.320   120363805.192 8  22904475.000    93789957.10647

  23136100.300   123458652.997 7

  20833979.340   111525930.935 9  20833980.600    86742383.543 8

  21763536.020   116542757.611 9  21763535.420    90644361.914 7

  21157052.860   112977470.483 9  21157054.320    87871364.110 8

  21911736.320   116801867.517 8

  23782935.100   127044132.404 6  23782938.200    98812092.261 4

  24519448.680   130886460.313 6  24519452.400   101800572.425 5

  21460706.920   114800327.812 5  21460708.500    89289142.212 7

  21185956.080   113290830.016 6  21185959.740    88115108.070 8

 20  5 25  0  8 30.0000000  0 22G03G04G08G09G11G14G16G18G21G22G26G27
                                G31R06R07R08R09R10R16R18R19R20
  24386171.820   128150176.871 7  24386173.660    99857281.77647  24386173.840
  95696560.399 7
  21406224.700   112490479.587 8  21406224.980    87654918.98348  21406227.860
  84002639.492 9
  21760041.080   114349793.745 9  21760042.920    89103741.12548  21760041.200
  85391081.167 9
  24118350.500   126742777.505 7  24118352.000    98760613.11247  24118351.400
  94645593.542 8
  25139088.980   132106802.616 7  25139088.580   102940364.38544

  23457825.480   123271676.491 8  23457825.400    96055842.36745

  20882481.120   109738164.834 8  20882479.480    85510242.95548

  25458451.360   133785062.793 6  25458453.620   104248104.89745  25458457.280
  99904455.311 5
  24870100.200   130693262.239 7  24870100.420   101838915.76745

  24839288.300   130531320.980 7  24839286.020   101712695.67246

  22334041.520   117366164.093 8  22334044.420    91454150.74348  22334042.820
  87643555.119 9
  20325365.300   106810507.660 9  20325366.100    83228959.99949  20325365.640
  79761085.983 9
  22912662.520   120406829.155 8  22912662.280    93823482.24648

  23158638.180   123578919.828 7

  20847109.760   111596217.557 9  20847110.820    86797050.904 8

  21757955.800   116512878.046 9  21757955.600    90621122.265 7

  21157506.540   112979893.952 9  21157508.220    87873249.035 8

  21906381.080   116773321.181 8

  23791208.080   127088323.618 6  23791210.700    98846463.177 4

  24537863.420   130984761.530 7  24537867.260   101877028.851 5

  21465132.720   114824002.956 5  21465134.360    89307556.230 7

  21168676.440   113198427.783 6  21168680.260    88043239.693 8

 20  5 25  0  9  0.0000000  0 22G03G04G08G09G11G14G16G18G21G22G26G27
                                G31R06R07R08R09R10R16R18R19R20
  24396811.920   128206090.658 7  24396813.760    99900851.00247  24396813.860
  95738314.266 7
  21396489.360   112439319.896 8  21396489.660    87615054.27848  21396492.520
  83964435.832 9
  21743037.340   114260438.554 9  21743039.100    89034113.69749  21743037.380
  85324354.876 9
  24100800.440   126650552.226 7  24100801.960    98688749.32647  24100801.400
  94576724.083 8
  25121584.040   132014813.830 7  25121583.780   102868684.83045

  23477750.020   123376379.943 7  23477750.060    96137429.41545

  20889908.020   109777194.172 9  20889906.500    85540655.43247

  25458459.200   133785103.701 5  25458461.720   104248136.83344  25458465.360
  99904485.901 6
  24871802.500   130702208.062 7  24871802.520   101845886.60044

  24848689.520   130580724.740 8  24848687.460   101751192.07046

  22346005.120   117429032.673 8  22346007.880    91503139.24948  22346006.220
  87690502.427 9
  20318116.680   106772417.103 9  20318117.560    83199279.05249  20318117.200
  79732641.752 9
  22920886.560   120450046.396 8  22920886.320    93857157.98747

  23181164.840   123699125.999 7

  20860340.100   111667039.985 9  20860341.240    86852134.997 8

  21752509.300   116483713.587 9  21752509.320    90598438.805 7

  21157955.340   112982290.751 9  21157957.060    87875113.226 8

  21901017.140   116744727.931 8

  23799478.780   127132503.436 6  23799481.060    98880825.243 4

  24556354.940   131083472.022 6  24556358.860   101953803.655 4

  21469700.420   114848436.240 5  21469701.900    89326559.903 7

  21151478.180   113106460.527 6  21151481.940    87971709.607 8

 20  5 25  0  9 30.0000000  0 22G03G04G08G09G11G14G16G18G21G22G26G27
                                G31R06R07R08R09R10R16R18R19R20
  24407459.060   128262040.905 7  24407461.060    99944448.57747  24407460.840
  95780095.277 8
  21386848.320   112388655.458 8  21386848.560    87575575.48948  21386851.400
  83926601.979 9
  21726101.740   114171441.633 9  21726103.480    88964765.42649  21726101.820
  85257896.115 9
  24083299.980   126558587.586 7  24083301.520    98617088.61547  24083301.120
  94508049.264 8
  25104047.040   131922656.142 8  25104046.620   102796873.66344

  23497708.560   123481263.147 7  23497708.740    96219156.59545

  20897373.580   109816426.262 9  20897372.000    85571225.88148

  25458540.800   133785532.502 6  25458542.980   104248471.03045  25458547.160
  99904806.158 6
  24873572.520   130711510.565 7  24873572.400   101853135.33945

  24858063.580   130629985.191 8  24858061.720   101789576.76846

  22357967.920   117491897.215 8  22357970.480    91552124.59448  22357968.900
  87737446.726 9
  20310981.900   106734924.256 9  20310983.040    83170063.84949  20310982.740
  79704643.845 9
  22929147.120   120493456.179 8  22929146.880    93890983.74948

  23203679.080   123819265.679 7

  20873669.440   111738392.504 9  20873670.520    86907631.386 8

  21747196.400   116455263.752 9  21747196.600    90576311.160 7

  21158399.080   112984659.620 9  21158400.460    87876955.688 8

  21895643.800   116716085.266 8

  23807747.380   127176672.252 6  23807749.520    98915178.754 4

  24574922.660   131182587.161 7  24574926.580   102030893.229 4

  21474409.340   114873625.393 5  21474410.800    89346151.465 7

  21134361.640   113014931.172 6  21134365.480    87900520.121 8

 20  5 25  0 10  0.0000000  0 22G03G04G08G09G11G14G16G18G21G22G26G27
                                G31R06R07R08R09R10R16R18R19R20
  24418112.620   128318026.035 7  24418114.500    99988073.31847  24418114.420
  95821902.290 7
  21377302.160   112338489.289 8  21377302.240    87536484.95248  21377305.060
  83889140.220 9
  21709235.100   114082806.907 9  21709236.800    88895699.39249  21709235.220
  85191707.832 9
  24065849.820   126466887.338 8  24065851.360    98545633.91948  24065851.160
  94439571.863 8
  25086478.340   131830332.520 7  25086477.840   102724933.18044

  23517701.160   123586324.496 7  23517701.360    96301022.51345

  20904877.720   109855860.114 9  20904875.920    85601953.53447

  25458696.840   133786351.378 6  25458699.120   104249109.15145  25458702.540
  99905417.747 6
  24875410.780   130721171.178 6  24875411.080   101860663.14245

  24867410.420   130679101.535 8  24867408.160   101827849.20146

  22369929.880   117554757.833 8  22369932.400    91601106.85948  22369930.920
  87784388.056 9
  20303961.440   106698031.450 9  20303962.800    83141316.21249  20303962.360
  79677094.014 9
  22937444.700   120537060.141 8  22937444.500    93924960.85647

  23226180.320   123939335.985 7

  20887097.180   111810272.226 9  20887098.120    86963537.824 8

  21742017.080   116427529.759 9  21742017.460    90554740.285 7

  21158837.800   112987001.770 9  21158838.800    87878777.350 8

  21890261.140   116687394.000 8

  23816014.180   127220832.334 6  23816016.760    98949525.458 4

  24593565.540   131282104.275 6  24593569.700   102108295.412 4

  21479259.800   114899571.463 5  21479261.180    89366331.750 7

  21117328.220   112923846.002 6  21117331.940    87829676.119 8

 20  5 25  0 10 30.0000000  0 22G03G04G08G09G11G14G16G18G21G22G26G27
                                G31R06R07R08R09R10R16R18R19R20
  24428772.680   128374044.498 7  24428774.400   100031724.03847  24428774.400
  95863734.202 8
  21367851.300   112288824.506 8  21367851.440    87497785.11748  21367854.100
  83852052.868 9
  21692437.900   113994537.745 9  21692439.880    88826918.21449  21692438.200
  85125792.535 9
  24048450.880   126375455.347 8  24048452.360    98474388.23848  24048452.120
  94371294.760 8
  25068878.660   131737846.350 7  25068878.080   102652866.04345

  23537727.380   123691562.498 7  23537727.300    96383026.08645

  20912420.260   109895495.055 9  20912418.120    85632837.89148

  25458927.220   133787562.869 7  25458929.460   104250053.20244  25458933.140
  99906322.417 7
  24877317.620   130731192.176 7  24877317.820   101868471.72845

  24876729.440   130728072.522 8  24876726.840   101866008.38545

  22381891.120   117617614.760 8  22381893.700    91650086.25648  22381892.280
  87831326.631 9
  20297055.440   106661741.145 9  20297057.040    83113038.05849  20297056.580
  79649994.119 9
  22945779.420   120580860.113 8  22945779.380    93959090.69247

  23248668.340   124059334.864 7

  20900622.880   111882676.116 9  20900623.640    87019851.942 8

  21736972.140   116400513.665 9  21736972.280    90533727.761 7

  21159272.000   112989319.325 9  21159272.580    87880579.907 8

  21884869.920   116658654.764 8

  23824279.620   127264986.102 6  23824282.460    98983867.275 4

  24612283.500   131382021.763 7  24612287.920   102186009.024 4

  21484251.840   114926274.893 6  21484253.160    89387101.082 7

  21100379.180   112833210.868 6  21100382.700    87759182.138 8

 20  5 25  0 11  0.0000000  0 22G03G04G08G09G11G14G16G18G21G22G26G27
                                G31R06R07R08R09R10R16R18R19R20
  24439438.480   128430093.077 7  24439440.460   100075398.21447  24439440.220
  95905588.615 8
  21358496.100   112239662.593 8  21358496.240    87459477.12448  21358498.960
  83815341.032 9
  21675710.660   113906636.733 8  21675712.900    88758423.91348  21675711.260
  85060152.151 9
  24031103.420   126284293.787 8  24031104.940    98403353.28348  24031104.420
  94303219.587 8
  25051248.320   131645199.405 7  25051247.740   102580673.65145

  23557787.000   123796974.626 7  23557786.680    96465165.37445

  20920000.380   109935328.760 9  20919998.380    85663877.12547

  25459232.520   133789167.512 6  25459234.720   104251303.58644  25459238.720
  99907520.743 6
  24879293.120   130741574.576 6  24879293.480   101876561.91645

  24886020.220   130776896.423 8  24886017.620   101904052.95545

  22393851.300   117680466.529 8  22393854.180    91699061.61648  22393852.660
  87878261.344 9
  20290264.280   106626054.149 9  20290265.980    83085230.01549  20290265.640
  79623344.749 9
  22954151.800   120624856.688 8  22954151.800    93993373.72347

  23271141.940   124179257.926 7

  20914245.680   111955600.031 9  20914246.520    87076570.522 8

  21732061.540   116374215.539 9  21732061.280    90513273.659 7

  21159701.280   112991612.030 9  21159701.780    87882363.134 8

  21879469.640   116629866.724 8

  23832544.040   127309134.590 6  23832547.240    99018204.998 4

  24631075.720   131482335.016 6  24631079.940   102264030.470 3

  21489385.520   114953735.001 6  21489386.460    89408458.957 7

  21083514.780   112743029.762 6  21083518.360    87689041.293 8

 20  5 25  0 11 30.0000000  0 22G03G04G08G09G11G14G16G18G21G22G26G27
                                G31R06R07R08R09R10R16R18R19R20
  24450109.260   128486167.382 7  24450111.120   100119092.44647  24450110.920
  95947462.234 8
  21349236.640   112191003.716 8  21349236.840    87421561.10148  21349239.480
  83779004.863 9
  21659053.620   113819104.632 9  21659056.100    88690217.06948  21659054.540
  84994787.255 9
  24013807.540   126193403.598 8  24013809.240    98332529.81048  24013808.620
  94235347.088 8
  25033587.400   131552391.837 6  25033586.920   102508356.10444

  23577878.560   123902556.345 8  23577878.140    96547436.81245

  20927617.340   109975357.637 8  20927615.660    85695068.43948

  25459612.240   133791164.880 6  25459615.360   104252859.91144  25459618.800
  99909012.223 6
  24881337.380   130752317.114 7  24881337.900   101884932.75445

  24895282.340   130825569.292 8  24895279.800   101941979.82945

  22405809.960   117743310.455 8  22405813.360    91748030.87048  22405811.500
  87925190.197 9
  20283588.000   106590969.945 9  20283589.580    83057891.67549  20283589.400
  79597145.506 9
  22962561.160   120669048.673 8  22962561.340    94027809.01147

  23293600.180   124299099.897 7

  20927964.260   112029037.537 9  20927965.140    87133688.557 8

  21727284.480   116348634.003 9  21727284.060    90493376.919 7

  21160125.620   112993878.860 9  21160126.080    87884126.235 8

  21874059.640   116601027.562 8

  23840807.480   127353277.213 6  23840810.680    99052538.120 4

  24649941.020   131583039.589 4  24649945.300   102342356.255 3

  21494659.840   114981949.493 5  21494660.800    89430403.557 7

  21066735.900   112653306.112 6  21066739.760    87619256.256 8

 20  5 25  0 12  0.0000000  0 22G03G04G08G09G11G14G16G18G21G22G26G27
                                G31R06R07R08R09R10R16R18R19R20
  24460784.560   128542268.202 7  24460786.840   100162807.32547  24460786.580
  95989355.648 8
  21340073.980   112142853.295 8  21340074.020    87384041.29548  21340076.720
  83743048.372 9
  21642467.900   113731947.538 8  21642470.720    88622302.44649  21642469.100
  84929702.406 9
  23996564.520   126102790.892 7  23996566.280    98261922.54248  23996565.740
  94167681.805 8
  25015896.940   131459429.150 6  25015896.980   102435917.69244

  23598002.440   124008308.324 7  23598002.240    96629840.87645

  20935271.720   110015582.826 8  20935270.240    85726412.73948

  25460067.960   133793559.755 6  25460070.880   104254726.06844  25460074.440
  99910800.596 7
  24883450.960   130763424.178 7  24883451.200   101893587.64145

  24904515.820   130874092.177 7  24904513.360   101979789.85744

  22417767.620   117806149.077 8  22417771.440    91796995.95748  22417769.300
  87972115.065 9
  20277027.340   106556493.242 9  20277028.860    83031026.72149  20277028.620
  79571399.927 9
  22971008.540   120713440.396 8  22971008.720    94062399.94247

  23316043.280   124418860.289 7

  20941778.980   112102988.418 9  20941779.840    87191205.901 8

  21722641.840   116323772.826 9  21722641.160    90474040.446 7

  21160545.760   112996123.607 9  21160546.560    87885872.154 8

  21868640.460   116572140.355 8

  23849071.000   127397419.125 6  23849073.980    99086870.693 4

  24668879.200   131684135.405 8  24668883.740   102420986.292 5

  21500075.920   115010921.216 5  21500076.640    89452937.120 7

  21050043.920   112564047.644 6  21050048.100    87549833.012 8

 20  5 25  0 12 30.0000000  0 22G03G04G08G09G11G14G16G18G21G22G26G27
                                G31R06R07R08R09R10R16R18R19R20
  24471463.520   128598387.162 7  24471466.080   100206536.36246  24471465.540
  96031262.638 7
  21331007.340   112095207.635 8  21331007.320    87346914.80548  21331010.040
  83707468.810 9
  21625953.080   113645162.435 8  21625956.180    88554677.69248  21625954.400
  84864895.352 9
  23979373.560   126012452.744 7  23979375.400    98191529.23347  23979375.120
  94100221.570 8
  24998176.440   131366307.983 6  24998176.280   102363355.73744

  23618157.100   124114222.718 7  23618157.140    96712371.51745

  20942962.100   110055996.926 8  20942960.800    85757904.24748

  25460598.680   133796347.593 6  25460600.700   104256898.43244  25460604.660
  99912882.502 6
  24885633.220   130774891.217 7  24885632.940   101902523.03144

  24913719.580   130922457.876 7  24913716.760   102017477.37244

  22429723.220   117868975.939 8  22429727.040    91845951.89548  22429724.860
  88019031.166 9
  20270581.420   106522619.583 9  20270582.960    83004631.67549  20270582.580
  79546104.670 9
  22979493.120   120758027.007 8  22979493.180    94097142.73547

  23338469.360   124538529.546 7

  20955687.760   112177442.826 9  20955688.620    87249114.877 8

  21718132.820   116299626.444 9  21718131.840    90455259.941 7

  21160960.940   112998341.123 9  21160961.880    87887596.886 8

  21863211.220   116543198.760 8

  23857333.740   127441556.069 6  23857336.560    99121199.447 4

  24687888.960   131785612.924 7  24687893.900   102499913.335 5

  21505632.400   115040644.207 5  21505633.200    89476055.010 7

  21033438.800   112475253.584 5  21033443.160    87480770.992 8

 20  5 25  0 13  0.0000000  0 21G03G04G08G09G11G14G16G18G21G22G26G27
                                G31R06R07R08R09R10R16R19R20
  24482146.000   128654525.484 7  24482148.880   100250280.48247  24482148.520
  96073184.069 8
  21322037.500   112048072.371 8  21322037.740    87310186.02448  21322040.680
  83672270.404 9
  21609510.360   113558755.831 9  21609513.440    88487347.86949  21609511.720
  84800370.925 9
  23962236.260   125922395.667 8  23962238.080    98121354.94947  23962238.020
  94032971.224 8
  24980426.800   131273033.949 6  24980426.760   102290674.75044

  23638343.260   124220300.835 8  23638343.360    96795029.75345

  20950689.040   110096601.952 9  20950687.700    85789544.52748

  25461205.000   133799533.419 6  25461207.100   104259380.98444  25461210.800
  99915261.561 6
  24887885.100   130786722.937 7  24887884.540   101911742.59944

  24922893.740   130970668.165 6  24922891.320   102055043.80244

  22441677.220   117931794.024 8  22441680.720    91894901.02748  22441678.860
  88065940.743 9
  20264251.280   106489353.963 9  20264252.680    82978710.41449  20264252.280
  79521263.464 9
  22988015.800   120802812.905 9  22988015.640    94132040.85047

  23360878.620   124658108.138 7

  20969690.380   112252400.304 9  20969691.320    87307415.122 8

  21713757.960   116276199.559 9  21713757.320    90437039.054 7

  21161371.980   113000536.078 9  21161372.900    87889304.057 8

  21857772.480   116514206.211 8

  23865596.300   127485693.595 6  23865599.700    99155528.636 4

  21511329.760   115071121.369 5  21511330.640    89499759.459 7

  21016922.220   112386932.628 6  21016926.440    87412076.918 8

 20  5 25  0 13 30.0000000  0 21G03G04G08G09G11G14G16G18G21G22G26G27
                                G31R06R07R08R09R10R16R19R20
  24492831.620   128710678.565 7  24492834.500   100294036.08147  24492834.000
  96115116.555 7
  21313164.800   112001447.531 8  21313165.340    87273854.97648  21313168.280
  83637453.152 9
  21593140.060   113472728.396 9  21593142.920    88420313.50049  21593141.260
  84736129.657 9
  23945152.840   125832620.278 8  23945154.440    98051400.15348  23945154.340
  93965931.225 8
  24962648.500   131179607.684 7  24962648.300   102217875.11945

  23658559.780   124326538.369 8  23658560.000    96877812.14545

  20958451.700   110137394.020 9  20958450.180    85821330.54048

  25461886.520   133803116.412 6  25461888.600   104262172.98044  25461892.280
  99917937.248 6
  24890205.920   130798918.301 7  24890205.300   101921245.48744

  24932037.620   131018719.172 6  24932035.480   102092486.05544

  22453629.180   117994600.539 8  22453632.200    91943841.15948  22453630.640
  88112841.709 9
  20258036.660   106456695.688 9  20258037.980    82953262.41049  20258037.660
  79496875.792 9
  22996576.180   120847797.020 9  22996575.960    94167093.40147

  23383269.680   124777590.364 7

  20983785.880   112327855.165 9  20983786.900    87366102.220 8

  21709517.140   116253490.361 9  21709516.540    90419376.344 7

  21161778.580   113002707.027 9  21161779.640    87890992.539 8

  21852323.720   116485160.993 8

  23873859.080   127529830.847 6  23873862.460    99189857.553 4

  21517167.600   115102350.717 5  21517168.600    89524048.954 7

  21000494.900   112299087.470 6  21000498.860    87343752.926 8

 20  5 25  0 14  0.0000000  0 21G03G04G08G09G11G14G16G18G21G22G26G27
                                G31R06R07R08R09R10R16R19R20
  24503519.100   128766843.614 6  24503522.420   100337801.03046  24503521.920
  96157057.949 7
  21304389.540   111955334.819 8  21304390.480    87237922.99048  21304393.340
  83603018.334 9
  21576842.500   113387082.635 9  21576845.100    88353576.53949  21576843.460
  84672173.404 9
  23928123.580   125743129.378 8  23928124.880    97981667.02848  23928124.740
  93899103.660 8
  24944841.640   131086030.868 7  24944840.980   102144958.13144

  23678806.080   124432932.505 7  23678806.060    96960716.60945

  20966249.600   110178371.273 9  20966247.980    85853260.85948

  25462644.220   133807097.656 5  25462646.520   104265275.10843  25462649.020
  99920910.180 5
  24892596.240   130811477.872 7  24892595.860   101931032.17944

  24941150.580   131066608.820 5  24941148.440   102129802.62744

  22465578.680   118057394.432 8  22465581.400    91992771.44948  22465580.040
  88159733.228 9
  20251937.880   106424645.676 9  20251939.040    82928288.37549  20251938.800
  79472942.343 9
  23005174.340   120892980.191 9  23005174.100    94202301.07247

  23405642.040   124896972.940 7

  20997973.480   112403803.055 9  20997974.580    87425172.776 8

  21705410.300   116231498.877 8  21705409.740    90402271.855 7

  21162180.540   113004854.424 9  21162181.940    87892662.722 8

  21846864.940   116456062.021 8

  23882121.960   127573969.316 6  23882125.160    99224187.386 4

  21523146.020   115134330.869 5  21523146.920    89548922.416 7

  20984157.440   112211722.788 6  20984161.100    87275802.633 8

 20  5 25  0 14 30.0000000  0 21G03G04G08G09G11G14G16G18G21G22G26G27
                                G31R06R07R08R09R10R16R19R20
  24514208.920   128823020.180 7  24514212.580   100381574.93647  24514212.220
  96199007.930 7
  21295712.680   111909738.292 8  21295713.780    87202393.24348  21295716.480
  83568969.001 9
  21560618.300   113301822.835 8  21560620.740    88287140.32348  21560619.220
  84608505.366 9
  23911149.160   125653927.731 8  23911150.300    97912159.28648  23911150.080
  93832492.086 8
  24927007.060   130992307.978 8  24927006.200   102071927.30644

  23699082.020   124539482.940 7  23699081.940    97043742.75845

  20974082.740   110219534.074 9  20974081.000    85885335.75248

  25463478.540   133811480.532 6  25463479.900   104268690.36345  25463482.820
  99924183.091 6
  24895056.300   130824405.220 7  24895055.920   101941105.45545

  24950233.000   131114337.419 5  24950230.900   102166993.68042

  22477525.800   118120177.056 8  22477528.480    92041692.95348  22477527.160
  88206616.321 9
  20245955.380   106393207.232 9  20245956.560    82903790.88449  20245956.380
  79449465.581 9
  23013810.860   120938365.007 9  23013810.600    94237665.85347

  23427995.300   125016253.935 7

  21012252.740   112480241.833 9  21012253.960    87484625.153 8

  21701437.960   116210228.270 9  21701437.660    90385728.042 7

  21162578.820   113006981.214 9  21162580.400    87894316.864 8

  21841396.540   116426911.431 8

  23890385.860   127618112.889 6  23890389.500    99258521.081 4

  21529265.200   115167063.572 5  21529265.780    89574381.199 7

  20967911.220   112124845.315 6  20967914.660    87208231.284 8

 20  5 25  0 15  0.0000000  0 21G03G04G08G09G11G14G16G18G21G22G26G27
                                G31R06R07R08R09R10R16R19R20
  24524900.800   128879205.913 7  24524904.620   100425355.96147  24524904.300
  96240964.752 8
  21287134.800   111864660.033 8  21287135.640    87167267.33548  21287138.260
  83535306.684 9
  21544467.860   113216952.388 8  21544470.580    88221007.52648  21544469.020
  84545128.106 9
  23894230.160   125565018.243 8  23894231.280    97842879.19248  23894230.980
  93766098.675 8
  24909145.020   130898441.615 8  24909144.220   101998784.71844

  23719387.400   124646187.242 8  23719387.260    97126888.81445

  20981950.740   110260880.945 9  20981948.980    85917554.07748

  25464389.260   133816266.621 6  25464390.400   104272419.93044  25464394.040
  99927757.271 5
  24897586.440   130837701.356 7  24897585.620   101951466.07945

  24959284.620

  22489470.500   118182947.855 8  22489473.340    92090605.24448  22489472.060
  88253490.594 9
  20240089.520   106362381.699 9  20240090.580    82879770.98249  20240090.560
  79426446.504 9
  23022485.900   120983952.758 9  23022485.760    94273188.77147

  23450328.940   125135430.470 7

  21026623.260   112557167.868 9  21026624.360    87544456.496 8

  21697600.560   116189678.350 9  21697600.100    90369744.751 7

  21162973.380   113009088.252 9  21162975.160    87895955.646 8

  21835918.340   116397709.009 8

  23898651.020   127662262.750 7  23898654.580    99292859.760 4

  21535524.580   115200548.521 5  21535525.600    89600425.057 7

  20951757.040   112038459.997 6  20951760.100    87141042.707 8

 20  5 25  0 15 30.0000000  0 21G03G04G08G09G11G14G16G18G21G22G26G27
                                G31R06R07R08R09R10R16R19R20
  24535593.420   128935394.229 7  24535596.860   100469139.04447  24535596.780
  96282923.530 8
  21278655.280   111820097.929 8  21278655.860    87132543.63448  21278658.340
  83502029.794 9
  21528391.340   113132470.084 8  21528394.180    88155177.17548  21528392.440
  84482040.681 9
  23877366.440   125476399.737 8  23877367.660    97773825.85148  23877367.200
  93699922.543 8
  24891255.300   130804429.829 8  24891254.660   101925528.79145

  23739720.660   124753039.152 7  23739720.440    97210149.88945

  20989852.460   110302405.184 8  20989850.720    85949910.59848

  25465376.340   133821452.852 6  25465377.920   104276461.24844  25465381.680
  99931630.208 6
  24900186.060   130851362.895 7  24900185.640   101962111.44845

  24968304.060

  22501412.060   118245702.164 8  22501414.920    92139504.70848  22501413.900
  88300352.582 9
  20234339.700   106332166.248 9  20234340.780    82856226.47349  20234340.620
  79403883.018 9
  23031198.920   121029740.077 8  23031198.680    94308867.21348

  23472641.620   125254494.861 6

  21041083.280   112634573.035 9  21041084.520    87604660.505 8

  21693897.160   116169845.740 9  21693896.380    90354319.396 7

  21163363.360   113011172.203 8  21163365.260    87897576.494 8

  21830429.160   116368449.940 8

  23906917.000   127706417.053 6  23906919.600    99327202.004 4

  21541923.820   115234780.662 5  21541925.100    89627050.068 6

  20935694.840   111952567.800 6  20935697.720    87074237.669 8

 20  5 25  0 16  0.0000000  0 20G03G04G08G09G11G14G16G18G21G26G27G31
                                R06R07R08R09R10R16R19R20
  24546286.220   128991584.560 7  24546289.580   100512923.69747  24546289.620
  96324883.828 8
  21270274.680   111776055.802 8  21270275.060    87098225.09648  21270277.500
  83469141.203 9
  21512389.580   113048380.170 9  21512392.320    88089652.57049  21512390.640
  84419246.265 9
  23860558.900   125388076.869 8  23860560.360    97705002.89048  23860559.820
  93633967.217 8
  24873338.680   130710276.791 8  24873338.260   101852162.86145

  23760082.040   124860038.724 7  23760081.960    97293526.35945

  20997788.100   110344107.664 8  20997786.480    85982406.03148

  25466439.720   133827042.221 6  25466441.640   104280816.62344  25466446.000
  99935804.119 7
  24902855.400   130865392.957 7  24902855.780   101973043.95445

  22513350.700   118308441.132 8  22513353.620    92188392.21748  22513352.720
  88347203.104 9
  20228706.520   106302563.893 9  20228707.820    82833159.69649  20228707.360
  79381777.357 9
  23039950.480   121075729.919 9  23039950.040    94344703.45247

  23494932.840   125373445.200 6

  21055632.480   112712454.976 9  21055633.620    87665235.329 8

  21690327.940   116150732.237 9  21690326.800    90339453.363 7

  21163749.880   113013235.958 9  21163751.760    87899181.620 8

  21824929.800   116339136.751 8

  23915184.200   127750579.370 6  23915187.300    99361550.569 4

  21548463.080   115269761.518 5  21548464.320    89654257.413 7

  20919725.860   111867175.228 6  20919729.000    87007821.247 8

 20  5 25  0 16 30.0000000  0 21G03G04G08G09G11G14G16G18G21G26G27G31
                                R01R06R07R08R09R10R16R19R20
  24556978.860   129047773.217 7  24556982.200   100556707.04247  24556981.860
  96366842.865 8
  21261992.760   111732534.363 8  21261993.380    87064312.29648  21261995.800
  83436641.437 9
  21496462.760   112964683.948 9  21496465.380    88024434.73249  21496463.720
  84356745.835 9
  23843807.880   125300051.241 7  23843809.500    97636411.53547  23843808.900
  93568233.863 8
  24855395.460   130615983.926 7  24855394.860   101778687.94545

  23780470.660   124967181.861 7  23780470.640    97377014.43245

  21005757.080   110385985.391 8  21005755.580    86015038.03248

  25467579.700   133833034.754 6  25467581.820   104285486.12444  25467586.200
  99940279.066 6
  24905595.340   130879791.284 7  24905595.940   101984263.43545

  22525286.300   118371162.925 8  22525289.260    92237266.32548  22525288.240
  88394040.785 9
  20223190.020   106273574.531 9  20223191.440    82810570.59649  20223190.760
  79360129.466 9
  23048740.260   121121921.723 8  23048740.060    94380697.07448

  24279180.560   129786137.141 6  24279186.640   100944788.478 3

  23517201.820   125492277.454 6

  21070269.760   112790808.762 9  21070270.800    87726177.146 8

  21686892.660   116132337.202 9  21686891.720    90325146.111 7

  21164132.640   113015279.250 9  21164134.520    87900770.815 8

  21819420.000   116309767.763 8

  23923452.780   127794749.629 6  23923456.340    99395905.171 4

  21555141.960   115305488.875 5  21555143.240    89682045.351 7

  20903850.940   111782285.747 6  20903854.320    86941796.105 8

 20  5 25  0 17  0.0000000  0 21G03G04G08G09G11G14G16G18G21G26G27G31
                                R01R06R07R08R09R10R16R19R20
