     2.11           OBSERVATION DATA    M (MIXED)           RINEX VERSION / TYPE
teqc  2011Oct11                         20200308 05:59:21UTCPGM / RUN BY / DATE
HKSL                                                        MARKER NAME
23015M001                                                   MARKER NUMBER
SMO                 Lands Department HKSAR                  OBSERVER / AGENCY
1870250             LEICA GR50          4.31/7.403          REC # / TYPE / VERS
725194              LEIAR25.R4      LEIT                    ANT # / TYPE
 -2393382.4157  5393861.1745  2412592.4105                  APPROX POSITION XYZ
        0.0083        0.0000        0.0000                  ANTENNA: DELTA H/E/N
     1     1                                                WAVELENGTH FACT L1/2
     6    C1    L1    P2    L2    C5    L5                  # / TYPES OF OBSERV
    30.0000                                                 INTERVAL
    18                                                      LEAP SECONDS
Linux 2.4.21-27.ELsmp|Opteron|gcc|Linux x86_64|=+           COMMENT
Spider v7.4.1.8151  SMO                 2020 03 08 00:19    COMMENT
BIT 2 OF LLI FLAGS DATA COLLECTED UNDER A/S CONDITION       COMMENT
SNR is mapped to RINEX snr flag value [1-9]                 COMMENT
LX:    >= 25dBHz -> 1; 26-27dBHz -> 2; 28-31dBHz -> 3       COMMENT
       32-35dBHz -> 4; 36-38dBHz -> 5; 39-41dBHz -> 6       COMMENT
       42-44dBHz -> 7; 45-48dBHz -> 8; >= 49dBHz -> 9       COMMENT
Forced Modulo Decimation to 30 seconds                      COMMENT
  2020     3     7     0     0    0.0000000     GPS         TIME OF FIRST OBS
                                                            END OF HEADER
 20  3  7  0  0  0.0000000  0 18G10G12G14G15G20G21G24G25G31G32R04R05
                                R06R09R15R16R20R21
  20376433.540   107078881.275 9  20376434.680    83438092.40749  20376432.300
  79961497.972 9
  22091327.580   116090688.046 9  22091326.520    90460278.47647

  23542459.600   123716462.877 8  23542459.180    96402407.20446

  25776923.400   135458633.710 7  25776924.460   105552181.93045

  20279306.420   106568475.288 9  20279304.900    83040355.04148

  23523110.880   123614758.297 8  23523109.320    96323185.58746

  23845726.480   125310142.967 7  23845727.460    97644278.90346  23845727.500
  93575761.784 7
  21114473.380   110957298.241 9  21114474.960    86460226.75749  21114474.960
  82857725.120 9
  22717444.720   119380973.983 9  22717443.420    93024099.24649

  22073307.500   115996016.643 9  22073308.160    90386519.77149  22073307.000
  86620386.224 8
  23056919.900   123468759.696 8  23056920.500    96031258.614 6

  20353086.040   108798912.479 9  20353086.540    84621396.136 8

  21553792.240   115015188.228 7

  22530821.220   120313355.620 8  22530822.240    93577030.776 7

  21336419.840   114015353.884 9  21336421.420    88678615.260 7

  19075618.140   101898523.555 8  19075618.860    79254402.818 7

  24612522.520   131614256.031 3

  24115138.540   129044977.007 6  24115139.720   100368310.637 4

 20  3  7  0  0 30.0000000  0 18G10G12G14G15G20G21G24G25G31G32R04R05
                                R06R09R15R16R20R21
  20370294.740   107046621.424 9  20370295.800    83412954.85949  20370293.500
  79937407.815 9
  22094686.920   116108340.861 9  22094685.580    90474033.93447

  23534524.120   123674760.739 8  23534523.360    96369912.03045

  25788739.600   135520727.788 6  25788740.360   105600566.80644

  20287711.500   106612643.690 9  20287709.840    83074771.96248

  23537619.660   123691002.627 8  23537618.160    96382596.69245

  23864014.520   125406246.995 7  23864015.720    97719165.13046  23864014.860
  93647527.767 7
  21106269.060   110914184.545 9  21106270.660    86426631.66749  21106270.600
  82825529.837 9
  22703104.020   119305612.770 9  22703102.600    92965376.23149

  22066434.340   115959897.413 9  22066434.900    90358374.93549  22066433.700
  86593414.087 9
  23068820.080   123532483.257 8  23068820.900    96080821.333 6

  20352010.020   108793160.113 9  20352010.420    84616922.073 8

  21538107.360   114931489.697 7

  22508565.600   120194511.992 8  22508566.740    93484596.870 7

  21355709.620   114118433.058 9  21355711.440    88758787.936 8

  19073647.300   101887996.178 8  19073648.140    79246214.858 7

  24627725.160   131695523.121 6  24627726.640   102429858.981 5

  24126205.120   129104195.814 6  24126206.240   100414369.802 4

 20  3  7  0  1  0.0000000  0 18G10G12G14G15G20G21G24G25G31G32R04R05
                                R06R09R15R16R20R21
  20364248.960   107014850.384 9  20364250.020    83388198.19849  20364247.620
  79913682.680 9
  22098157.680   116126579.576 9  22098156.240    90488245.92047

  23526581.400   123633021.204 8  23526580.660    96337387.74546

  25800564.680   135582868.175 7  25800565.060   105648987.82044

  20296215.120   106657330.297 9  20296213.460    83109592.69248

  23552125.000   123767228.976 8  23552123.920    96441993.78445

  23882296.920   125502321.477 7  23882297.920    97794028.34445  23882297.100
  93719271.700 7
  21098164.560   110871594.874 9  21098166.160    86393444.91249  21098166.060
  82793725.842 9
  22688828.680   119230595.618 8  22688827.180    92906921.30348

  22059560.680   115923776.664 9  22059561.320    90330228.89949  22059560.180
  86566440.814 9
  23080785.360   123596555.594 8  23080785.940    96130655.306 6

  20351003.600   108787779.935 9  20351003.940    84612737.482 8

  21522424.800   114847805.120 7

  22486362.400   120075947.889 9  22486363.480    93392380.375 7

  21375072.520   114221901.285 9  21375074.080    88839263.228 7

  19071825.160   101878262.580 8  19071825.880    79238644.286 7

  24642881.380   131776549.768 7  24642885.100   102492885.132 5

  24137322.620   129163686.617 7  24137323.520   100460640.402 4

 20  3  7  0  1 30.0000000  0 18G10G12G14G15G20G21G24G25G31G32R04R05
                                R06R09R15R16R20R21
  20358296.340   106983568.784 9  20358297.260    83363822.91749  20358294.960
  79890323.036 9
  22101739.660   116145402.879 9  22101738.280    90502913.43147

  23518631.320   123591242.581 8  23518630.280    96304833.00746

  25812398.560   135645054.338 7  25812398.740   105697444.46444

  20304816.940   106702533.011 9  20304815.240    83144815.56648

  23566626.220   123843433.885 8  23566625.140    96501374.16545

  23900573.140   125598363.876 7  23900574.040    97868866.53746  23900573.760
  93790991.604 7
  21090159.880   110829530.125 9  21090161.580    86360667.18449  21090161.400
  82762313.864 9
  22674618.740   119155922.664 8  22674617.180    92848734.59648

  22052686.360   115887653.198 9  22052687.200    90302080.75649  22052685.900
  86539465.511 8
  23092815.680   123660975.397 8  23092815.740    96180759.530 6

  20350066.780   108782772.710 9  20350067.220    84608842.960 8

  21506745.040   114764135.124 7

  22464211.920   119957664.982 9  22464212.800    93300382.557 7

  21394507.000   114325753.169 9  21394508.520    88920036.886 8

  19070151.220   101869320.631 8  19070151.800    79231689.443 7

  24657990.480   131857361.546 7  24657993.700   102555723.696 5

  24148489.980   129223443.904 6  24148490.680   100507118.248 5

 20  3  7  0  2  0.0000000  0 18G10G12G14G15G20G21G24G25G31G32R04R05
                                R06R09R15R16R20R21
  20352436.860   106952777.211 9  20352437.840    83339829.47849  20352435.660
  79867329.323 9
  22105432.780   116164809.570 9  22105431.140    90518035.54247

  23510673.420   123549422.801 8  23510672.140    96272246.17045

  25824240.700   135707285.196 6  25824241.240   105745935.94144

  20313516.400   106748249.528 9  20313514.840    83180438.81248

  23581122.580   123919613.273 7  23581121.680    96560734.65345

  23918842.660   125694371.175 7  23918843.740    97943677.39446  23918843.800
  93862685.317 7
  21082255.320   110787991.177 9  21082257.040    86328299.18549  21082256.840
  82731294.536 9
  22660473.920   119081592.876 8  22660472.560    92790815.28548

  22045811.600   115851525.791 9  22045812.360    90273929.53549  22045811.000
  86512487.266 8
  23104910.600   123725741.426 8  23104910.460    96231133.045 6

  20349199.860   108778139.483 9  20349200.480    84605239.324 8

  21491068.580   114680481.369 8

  22442114.580   119839665.338 9  22442115.100    93208605.060 7

  21414012.400   114429983.174 9  21414013.780    89001104.656 7

  19068625.120   101861168.853 8  19068625.840    79225349.161 7

  24673061.500   131937954.392 4  24673064.680

  24159705.940   129283462.154 7  24159706.340   100553799.128 5

 20  3  7  0  2 30.0000000  0 18G10G12G14G15G20G21G24G25G31G32R04R05
                                R06R09R15R16R20R21
  20346671.320   106922479.704 9  20346672.540    83316221.03849  20346670.260
  79844704.561 9
  22109237.160   116184801.441 9  22109235.380    90533613.63147

  23502707.880   123507563.546 8  23502706.540    96239628.58246

  25836091.860   135769563.255 7  25836092.400   105794464.19645

  20322313.880   106794480.640 9  20322312.440    83216463.03648

  23595613.960   123995766.801 8  23595613.040    96620075.00945

  23937105.540   125790343.060 7  23937106.720    98018460.63446  23937106.780
  93934352.624 7
  21074451.660   110746982.420 9  21074453.320    86296344.31349  21074453.260
  82700671.123 9
  22646395.300   119007608.858 9  22646393.860    92733165.40349

  22038936.480   115815396.794 9  22038937.180    90245777.07649  22038935.860
  86485507.816 8
  23117070.060   123790855.826 8  23117070.180    96281777.541 6

  20348403.780   108773884.829 9  20348404.620    84601930.144 8

  21475395.940   114596847.916 8

  22420071.080   119721954.489 8  22420071.520    93117052.202 7

  21433588.000   114534589.243 9  21433588.840    89082464.921 7

  19067247.220   101853808.492 8  19067248.100    79219624.438 7

  24688084.380   132018284.172 5  24688084.980   102680899.9241

  24170970.240   129343739.506 7  24170970.980   100600681.508 5

 20  3  7  0  3  0.0000000  0 18G10G12G14G15G20G21G24G25G31G32R04R05
                                R06R09R15R16R20R21
  20341000.080   106892677.788 9  20341001.420    83292998.76249  20340999.140
  79822449.880 9
  22113152.760   116205377.987 9  22113151.080    90549647.29547

  23494734.640   123465663.748 8  23494733.320    96206979.41846

  25847952.160   135831888.798 6  25847952.760   105843029.47946

  20331209.060   106841225.034 9  20331207.600    83252887.22948

  23610099.900   124071891.211 7  23610099.180    96679392.68145

  23955361.400   125886278.625 7  23955362.560    98093215.59346  23955362.860
  94005992.761 7
  21066749.020   110706505.630 9  21066750.820    86264803.96249  21066750.860
  82670444.955 9
  22632382.840   118933971.877 9  22632381.320    92675785.94549

  22032060.920   115779265.879 9  22032061.740    90217623.11749  22032060.360
  86458526.942 9
  23129294.700   123856318.192 8  23129294.980    96332692.643 6

  20347678.900   108770010.659 9  20347679.960    84598916.901 8

  21459727.400   114513237.458 8

  22398082.260   119604535.617 8  22398082.580    93025726.417 7

  21453233.120   114639566.549 9  21453233.860    89164113.924 7

  19066017.220   101847238.827 8  19066018.220    79214514.686 7

  24703061.660   132098368.834 6  24703066.680

  24182281.900   129404271.385 7  24182282.960   100647761.871 5

 20  3  7  0  3 30.0000000  0 18G10G12G14G15G20G21G24G25G31G32R04R05
                                R06R09R15R16R20R21
  20335423.760   106863373.784 9  20335425.040    83270164.47449  20335422.720
  79800567.016 9
  22117179.640   116226539.570 9  22117178.020    90566136.84547

  23486753.600   123423723.336 8  23486752.220    96174298.56945

  25859821.680   135894262.827 6  25859822.220   105891632.54045

  20340201.760   106888482.160 9  20340200.320    83289710.95748

  23624579.860   124147984.658 8  23624579.240    96738686.19945

  23973610.100   125982175.610 7  23973611.260    98167940.49445  23973611.400
  94077604.123 7
  21059148.160   110666563.427 9  21059150.020    86233680.18649  21059150.100
  82640618.005 9
  22618436.280   118860682.790 8  22618435.020    92618677.57048

  22025185.180   115743133.721 9  22025186.040    90189468.20949  22025184.620
  86431545.140 9
  23141584.200   123922128.926 8  23141584.420    96383878.706 6

  20347025.920   108766519.984 9  20347026.780    84596201.923 8

  21444063.520   114429652.562 8

  22376148.820   119487412.322 8  22376149.400    92934630.543 7

  21472947.220   114744911.514 9  21472947.780    89246048.895 8

  19064935.380   101841459.587 8  19064936.320    79210019.723 7

  24717994.580                    24717999.160

  24193640.800   129465054.551 7  24193641.580   100695037.632 5

 20  3  7  0  4  0.0000000  0 18G10G12G14G15G20G21G24G25G31G32R04R05
                                R06R09R15R16R20R21
  20329942.800   106834570.491 9  20329944.000    83247720.34949  20329941.620
  79779058.065 9
  22121318.000   116248287.156 9  22121316.360    90583083.00647

  23478764.800   123381742.618 8  23478763.460    96141586.34245

  25871700.340   135956686.778 7  25871701.320   105940274.49444

  20349291.960   106936251.888 9  20349290.620    83326934.10448

  23639053.740   124224045.458 8  23639052.980    96797954.29345

  23991851.160   126078033.135 7  23991852.480    98242634.63345  23991852.480
  94149185.988 7
  21051649.760   110627158.956 9  21051651.500    86202975.41149  21051651.660
  82611192.600 9
  22604556.120   118787743.211 8  22604555.100    92561841.54048

  22018309.480   115707001.448 9  22018310.340    90161313.19149  22018309.000
  86404563.246 8
  23153938.940   123988289.045 8  23153939.420    96435336.474 6

  20346445.160   108763415.823 9  20346446.000    84593787.559 8

  21428405.100   114346097.083 8

  22354271.480   119370588.806 9  22354272.520    92843767.819 7

  21492729.360   114850620.992 9  21492729.900    89328267.353 7

  19064001.600   101836471.157 8  19064002.400    79206139.835 7

  24732886.680   132257874.66716  24732891.740   102867254.20014

  24205045.800   129526085.634 7  24205047.000   100742506.270 5

 20  3  7  0  4 30.0000000  0 18G10G12G14G15G20G21G24G25G31G32R04R05
                                R06R09R15R16R20R21
  20324556.760   106806266.268 9  20324557.820    83225665.10849  20324555.520
  79757921.791 9
  22125566.940   116270616.743 9  22125565.640    90600482.68147

  23470767.500   123339717.673 8  23470766.500    96108839.62246

  25883587.680   136019156.961 5  25883589.020   105988952.49144

  20358478.900   106984529.807 9  20358477.640    83364553.25548

  23653520.280   124300067.536 8  23653519.380    96857192.21344

  24010084.020   126173846.980 7  24010085.040    98317294.74345  24010085.480
  94220735.262 7
  21044253.500   110588290.827 9  21044255.100    86172688.56649  21044255.280
  82582167.710 9
  22590742.160   118715150.590 8  22590741.040    92505275.86748

  22011433.160   115670865.761 9  22011433.960    90133155.51149  22011432.740
  86377578.810 9
  23166358.420   124054794.737 8  23166358.700    96487063.071 5

  20345936.560   108760696.942 9  20345937.320    84591672.861 8

  21412752.000   114262569.559 7

  22332450.220   119254065.048 8  22332451.300    92753138.234 7

  21512578.280   114956687.071 9  21512578.760    89410763.194 7

  19063214.920   101832269.316 8  19063215.880    79202871.732 7

  24747728.180   132337236.845 8  24747731.160   102928957.904 7

  24216495.600   129587357.247 7  24216497.280   100790161.932 4

 20  3  7  0  5  0.0000000  0 18G10G12G14G15G20G21G24G25G31G32R04R05
                                R06R09R15R16R20R21
  20319266.760   106778467.157 9  20319267.860    83204003.45749  20319265.520
  79737162.716 9
  22129927.540   116293532.463 9  22129926.360    90618339.07647

  23462762.580   123297652.297 8  23462761.640    96076061.42546

  25895485.120   136081678.561 6  25895486.840   106037670.56645

  20367763.200   107033318.854 9  20367761.940    83402570.68048

  23667979.860   124376052.685 7  23667979.060    96916401.33845

  24028308.680   126269619.271 7  24028309.600    98391922.45146  24028310.600
  94292253.475 7
  21036960.340   110549965.331 9  21036961.960    86142824.54449  21036962.200
  82553548.031 9
  22576995.380   118642909.740 8  22576994.020    92448984.29548

  22004556.720   115634731.047 9  22004557.780    90104998.60749  22004556.540
  86350595.109 9
  23178843.320   124121650.269 8  23178843.540    96539061.762 5

  20345501.240   108758370.035 9  20345502.280    84589863.047 8

  21397105.620   114179077.053 8

  22310686.540   119137848.745 8  22310687.640    92662747.788 7

  21532493.980   115063109.617 9  21532494.700    89493536.258 7

  19062576.360   101828857.538 8  19062577.260    79200218.131 7

  24762525.500   132416337.795 5  24762528.460   102990501.954 2

  24227990.380   129648869.418 7  24227991.540   100838004.713 4

 20  3  7  0  5 30.0000000  0 18G10G12G14G15G20G21G24G25G31G32R04R05
                                R06R09R15R16R20R21
  20314072.280   106751170.164 9  20314073.460    83182733.07549  20314071.000
  79716778.596 9
  22134398.860   116317029.074 9  22134397.500    90636648.13047

  23454748.980   123255541.049 8  23454748.160    96043247.46546

  25907391.580   136144247.428 6  25907393.040   106086425.43944

  20377143.620   107082613.131 9  20377142.280    83440981.78948

  23682431.080   124451993.538 8  23682430.220    96975575.94944

  24046524.020   126365342.861 6  24046525.360    98466512.23746  24046526.060
  94363735.329 7
  21029769.960   110512179.784 9  21029771.580    86113381.27849  21029771.880
  82525331.571 9
  22563314.380   118571016.428 8  22563313.280    92392963.55649

  21997679.920   115598592.744 9  21997680.940    90076838.90049  21997679.680
  86323608.727 9
  23191393.020   124188850.847 8  23191393.100    96591328.803 6

  20345138.780   108756432.524 9  20345139.920    84588356.084 8

  21381465.580   114095617.570 8

  22288980.200   119021938.164 8  22288981.360    92572595.131 7

  21552474.480   115169879.722 9  21552475.340    89576579.680 7

  19062084.580   101826230.358 8  19062085.380    79198174.780 7

  24777268.860   132495194.142 8  24777270.740   103051825.598 6

  24239528.640   129710613.144 8  24239530.000   100886027.599 5

 20  3  7  0  6  0.0000000  0 18G10G12G14G15G20G21G24G25G31G32R04R05
                                R06R09R15R16R20R21
  20308974.720   106724381.790 9  20308975.800    83161859.01449  20308973.260
  79696774.289 9
  22138981.420   116341110.894 9  22138980.000    90655413.17747

  23446727.580   123213388.289 7  23446727.040    96010401.18646

  25919308.080   136206868.604 6  25919309.560   106135221.08344

  20386620.800   107132416.263 9  20386619.440    83479789.41248

  23696874.340   124527892.625 8  23696873.540    97034718.02945

  24064731.040   126461021.615 7  24064732.580    98541067.07945  24064733.000
  94435183.728 7
  21022683.660   110474940.960 9  21022685.300    86084364.01049  21022685.560
  82497523.358 9
  22549700.760   118499476.716 8  22549699.800    92337218.33749

  21990803.320   115562455.778 9  21990804.400    90048680.22449  21990803.040
  86296623.309 9
  23204007.660   124256400.724 8  23204007.620    96643867.534 6

  20344850.680   108754891.385 9  20344851.700    84587157.426 8

  21365832.720   114012198.236 7

  22267332.760   118906341.434 8  22267333.680    92482686.575 7

  21572519.840   115276997.881 9  21572521.000    89659893.781 7

  19061740.300   101824391.284 8  19061741.120    79196744.395 7

  24791964.960   132573790.697 5  24791967.700   103112948.332 4

  24251110.380   129772589.096 7  24251111.280   100934231.102 5

 20  3  7  0  6 30.0000000  0 18G10G12G14G15G20G21G24G25G31G32R04R05
                                R06R09R15R16R20R21
  20303973.800   106698101.242 9  20303974.740    83141380.66049  20303972.300
  79677149.197 9
  22143674.880   116365775.295 9  22143673.540    90674632.19147

  23438697.560   123171190.693 7  23438697.360    95977519.96546

  25931234.160   136269539.419 5  25931235.700   106184055.40445

  20396194.100   107182724.405 9  20396192.700    83518990.54748

  23711308.500   124603744.270 7  23711307.740    97093823.12545

  24082928.760   126556651.017 7  24082930.400    98615583.44146  24082930.800
  94506595.246 7
  21015701.280   110438248.303 9  21015703.000    86055772.34449  21015703.140
  82470123.015 9
  22536154.360   118428288.642 9  22536153.180    92281747.11649

  21983926.440   115526317.758 9  21983927.420    90020520.73449  21983926.180
  86269637.135 9
  23216687.000   124324297.433 8  23216686.640    96696676.029 6

  20344636.600   108753746.288 9  20344637.340    84586266.777 8

  21350207.420   113928819.309 7

  22245744.120   118791059.111 8  22245744.860    92393022.565 7

  21592629.060   115384457.286 9  21592630.640    89743473.293 7

  19061542.960   101823337.252 8  19061543.900    79195924.593 7

  24806613.500   132652124.850 4  24806616.680   103173862.855 3

  24262734.620   129834790.770 7  24262734.820   100982610.124 5

 20  3  7  0  7  0.0000000  0 18G10G12G14G15G20G21G24G25G31G32R04R05
                                R06R09R15R16R20R21
  20299069.600   106672329.461 9  20299070.540    83121298.75149  20299068.120
  79657904.031 9
  22148478.880   116391021.077 9  22148477.720    90694304.22447

  23430658.800   123128947.282 8  23430658.500    95944603.01445

  25943169.640   136332260.075 6  25943171.200   106232928.53845

  20405863.120   107233535.713 9  20405861.740    83558583.75648

  23725733.160   124679545.550 7  23725732.400    97152888.98245

  24101116.660   126652228.926 6  24101118.480    98690059.69546  24101118.920
  94577968.310 7
  21008823.100   110402103.016 9  21008824.800    86027607.20149  21008824.900
  82443131.420 9
  22522674.600   118357451.700 8  22522673.320    92226549.50548

  21977049.380   115490178.146 9  21977050.180    89992359.99549  21977048.940
  86242649.770 9
  23229431.020   124392540.241 8  23229430.600    96749753.706 6

  20344496.780   108752998.787 9  20344497.520    84585685.381 8

  21334590.020   113845482.403 7

  22224214.820   118676093.879 8  22224215.480    92303605.169 7

  21612801.660   115492253.050 9  21612803.080    89827314.432 7

  19061492.160   101823066.443 8  19061493.140    79195713.970 7

  24821211.980   132730174.881 7  24821218.480

  24274399.900   129897213.028 8  24274400.400   101031160.738 5

 20  3  7  0  7 30.0000000  0 18G10G12G14G15G20G21G24G25G31G32R04R05
                                R06R09R15R16R20R21
  20294262.640   106647068.931 9  20294263.580    83101615.21749  20294261.120
  79639040.644 9
  22153393.700   116416848.523 9  22153392.680    90714429.49647

  23422611.580   123086657.998 8  23422610.820    95911650.35145

  25955114.760   136395031.339 6  25955115.980   106281841.12044

  20415627.780   107284849.647 9  20415626.440    83598568.62748

  23740147.800   124755294.579 8  23740147.200    97211914.12345

  24119294.780   126747754.191 7  24119296.360    98764494.93446  24119296.760
  94649302.076 7
  21002049.620   110366507.878 9  21002051.240    85999870.74749  21002051.340
  82416550.647 9
  22509261.700   118286967.357 9  22509260.720    92171626.64649

  21970172.280   115454037.977 9  21970172.960    89964198.82949  21970171.620
  86215661.980 9
  23242239.600   124461129.292 8  23242239.100    96803100.687 6

  20344431.720   108752651.710 9  20344432.620    84585415.428 8

  21318981.160   113762191.058 7

  22202745.600   118561449.589 8  22202746.160    92214437.423 7

  21633036.560   115600381.435 9  21633037.920    89911414.266 7

  19061587.920   101823578.481 8  19061589.020    79196112.229 7

  24835763.840   132807969.621 7  24835765.220   103295109.88414

  24286105.780   129959852.617 7  24286105.820   101079880.458 4

 20  3  7  0  8  0.0000000  0 17G10G12G14G15G20G21G24G25G31G32R04R05
                                R06R09R15R16R21
  20289553.440   106622321.747 9  20289554.380    83082331.69949  20289551.840
  79620560.603 9
  22158419.300   116443257.564 9  22158418.220    90735007.96847

  23414555.600   123044322.844 8  23414554.740    95878661.92546

  25967069.720   136457854.340 5  25967071.320   106330794.06444

  20425487.920   107336665.020 9  20425486.540    83638944.22448

  23754552.320   124830989.471 8  23754551.660    97270897.09345

  24137462.300   126843225.805 6  24137464.120    98838888.34545  24137464.280
  94720595.804 7
  20995381.300   110331465.186 9  20995382.940    85972564.75549  20995382.980
  82390382.411 9
  22495916.340   118216836.859 9  22495915.300    92116979.50949

  21963294.920   115417897.855 9  21963295.780    89936037.69549  21963294.360
  86188674.223 9
  23255112.620   124530064.988 8  23255112.560    96856717.269 6

  20344442.260   108752707.857 9  20344443.240    84585459.102 8

  21303381.300   113678948.121 7

  22181337.260   118447129.877 9  22181337.800    92125522.110 7

  21653333.020   115708838.716 9  21653334.240    89995769.919 7

  19061830.320   101824872.884 8  19061831.220    79197119.002 7

  24297851.340   130022705.926 7  24297851.260   101128766.283 5

 20  3  7  0  8 30.0000000  0 17G10G12G14G15G20G21G24G25G31G32R04R05
                                R06R09R15R16R21
  20284942.540   106598091.506 9  20284943.460    83063450.98449  20284941.020
  79602466.588 9
  22163555.980   116470249.870 9  22163554.720    90756040.93647

  23406491.060   123001943.182 8  23406490.300    95845638.84846

  25979034.940   136520731.509 6  25979036.440   106379789.18544

  20435443.560   107388982.629 9  20435442.320    83679711.18248

  23768946.380   124906629.519 8  23768945.560    97329837.33045

  24155619.720   126938643.891 6  24155621.780    98913240.09045  24155621.700
  94791849.520 7
  20988818.820   110296978.842 9  20988820.520    85945692.29649  20988820.440
  82364629.638 9
  22482638.940   118147062.776 9  22482637.580    92062610.09449

  21956418.120   115381759.964 9  21956419.020    89907878.29349  21956417.460
  86161688.135 9
  23268050.840   124599349.045 8  23268051.020    96910604.786 6

  20344529.020   108753171.254 9  20344529.780    84585819.501 8

  21287791.300   113595758.417 7

  22159990.760   118333140.192 9  22159991.360    92036863.485 7

  21673690.520   115817622.655 9  21673691.440    90080379.633 7

  19062219.320   101826950.617 8  19062220.120    79198735.025 7

  24309636.440   130085770.826 7  24309636.400   101177816.774 4

 20  3  7  0  9  0.0000000  0 17G10G12G14G15G20G21G24G25G31G32R04R05
                                R06R09R15R16R21
  20280430.060   106574378.482 9  20280430.880    83044973.29649  20280428.600
  79584758.804 9
  22168803.100   116497823.304 9  22168801.840    90777526.71847

  23398417.660   122959517.426 8  23398416.780    95812579.80345

  25991010.240   136583661.697 5  25991011.980   106428825.60143

  20445494.360   107441800.039 9  20445493.200    83720867.58948

  23783329.120   124982210.800 8  23783328.260    97388731.75745

  24173766.460   127034005.183 7  24173768.360    98987547.55244  24173768.280
  94863060.802 7
  20982362.260   110263049.301 9  20982363.900    85919253.69649  20982363.840
  82339292.653 9
  22469428.680   118077644.028 8  22469427.420    92008517.56548

  21949541.640   115345623.156 9  21949542.500    89879719.73549  21949540.820
  86134702.850 9
  23281053.760   124668979.736 8  23281054.200    96964761.948 6

  20344692.100   108754042.671 9  20344692.720    84586497.265 8

  21272211.840   113512623.124 7

  22138706.220   118219482.173 8  22138706.840    91948462.827 7

  21694107.760   115926727.550 9  21694108.960    90165238.975 7

  19062754.280   101829808.729 8  19062755.200    79200958.009 7

  24321459.900   130149041.646 6  24321460.200   101227027.394 5

 20  3  7  0  9 30.0000000  0 17G10G12G14G15G20G21G24G25G31G32R04R05
                                R06R09R15R16R21
  20276016.620   106551185.866 9  20276017.500    83026901.12649  20276015.280
  79567439.641 9
  22174160.980   116525978.877 9  22174159.880    90799466.13247

  23390335.700   122917046.408 8  23390334.820    95779485.53846

  26002995.960   136646646.825 4

  20455640.360   107495117.395 9  20455639.160    83762413.56448

  23797700.500   125057732.328 8  23797699.620    97447579.63845

  24191902.480   127129310.007 7  24191904.280    99061811.02645  24191904.240
  94934229.979 7
  20976012.160   110229680.023 9  20976013.780    85893251.67049  20976013.800
  82314374.054 9
  22456286.620   118008582.807 9  22456285.460    91954703.61849

  21942665.580   115309489.277 9  21942666.640    89851563.47049  21942664.900
  86107719.767 9
  23294121.580   124738958.318 8  23294122.260    97019189.649 5

  20344932.140   108755325.945 9  20344932.800    84587495.363 8

  21256643.660   113429546.907 7

  22117484.640   118106160.614 9  22117485.380    91860323.859 7

  21714584.680   116036150.788 9  21714585.880    90250345.933 7

  19063435.540   101833448.266 8  19063436.560    79203788.758 7

  24333321.620   130212515.712 7  24333321.840   101276396.055 4

 20  3  7  0 10  0.0000000  0 17G10G12G14G15G20G21G24G25G31G32R04R05
                                R06R09R15R16R21
  20271702.100   106528513.599 9  20271703.180    83009234.42449  20271700.960
  79550509.048 9
  22179629.100   116554714.402 9  22179628.000    90821857.44847

  23382244.840   122874527.948 8  23382243.920    95746354.28746

  26014991.780                    26014998.660

  20465880.960   107548931.402 9  20465879.660    83804346.54248

  23812059.680   125133190.068 7  23812058.940    97506377.79145

  24210027.080   127224554.892 7  24210028.960    99136027.79845  24210029.060
  95005354.339 7
  20969768.640   110196871.158 9  20969770.360    85867686.32849  20969770.380
  82289873.929 9
  22443212.840   117939878.402 9  22443211.600    91901167.71849

  21935789.620   115273356.883 9  21935791.020    89823408.37049  21935789.180
  86080737.784 9
  23307254.080   124809282.995 8  23307254.880    97073886.528 6

  20345249.280   108757021.331 9  20345250.080    84588813.980 8

  21241086.400   113346529.979 7

  22096326.300   117993177.055 8  22096326.960    91772447.776 7

  21735120.140   116145886.455 9  21735121.480    90335695.878 7

  19064262.580   101837865.885 8  19064263.500    79207224.690 7

  24345220.100   130276187.551 7  24345220.460   101325918.588 6

 20  3  7  0 10 30.0000000  0 16G10G12G14G20G21G24G25G31G32R04R05R06
                                R09R15R16R21
  20267486.340   106506359.644 9  20267487.420    82991971.59449  20267485.240
  79533965.502 9
  22185206.720   116584025.750 9  22185205.740    90844697.46747

  23374144.100   122831957.967 8  23374143.040    95713182.88745

  20476215.080   107603237.036 9  20476213.760    83846662.61248

  23826405.420   125208577.953 7  23826404.960    97565121.51945

  24228139.160   127319734.953 6  24228141.080    99210194.04045  24228141.340
  95076430.324 7
  20963631.540   110164620.905 9  20963633.320    85842556.27649  20963633.300
  82265790.960 9
  22430206.280   117871527.622 8  22430205.040    91847907.36448

  21928913.480   115237222.657 9  21928914.840    89795251.82449  21928913.200
  86053754.444 9
  23320450.700   124879949.533 8  23320451.360    97128849.312 6

  20345643.280   108759127.530 9  20345644.300    84590452.139 8

  21225540.480   113263572.632 7

  22075231.260   117880530.982 9  22075231.900    91684834.183 7

  21755712.820   116255926.524 9  21755714.060    90421282.586 8

  19065234.360   101843056.604 8  19065235.120    79211261.918 7

  24357154.360   130340048.900 7  24357154.960   101375588.459 4

 20  3  7  0 11  0.0000000  0 16G10G12G14G20G21G24G25G31G32R04R05R06
                                R09R15R16R21
  20263370.980   106484733.352 9  20263372.060    82975119.93249  20263369.860
  79517815.989 9
  22190895.340   116613920.088 9  22190894.240    90867991.77247

  23366034.940   122789343.728 8  23366033.640    95679976.99346

  20486644.020   107658040.931 9  20486642.620    83889366.94248

  23840739.020   125283901.306 8  23840738.700    97623814.94945

  24246239.960   127414856.364 6  24246242.100    99284314.57545  24246242.360
  95147462.503 6
  20957602.660   110132938.801 9  20957604.380    85817868.92849  20957604.300
  82242132.269 9
  22417268.080   117803538.753 8  22417267.240    91794929.03948

  21922038.640   115201094.653 9  21922039.820    89767100.14149  21922038.180
  86026775.749 8
  23333712.600   124950965.482 8  23333713.020    97184083.897 6

  20346115.980   108761654.214 9  20346117.100    84592417.329 8

  21210007.480   113180684.503 8

  22054201.440   117768233.389 9  22054202.220    91597491.643 7

  21776363.160   116366274.803 9  21776364.380    90507109.004 7

  19066352.120   101849027.312 8  19066352.780    79215905.802 7

  24369124.120   130404104.035 8  24369125.020   101425409.157 6

 20  3  7  0 11 30.0000000  0 16G10G12G14G20G21G24G25G31G32R04R05R06
                                R09R15R16R21
  20259355.460   106463632.269 9  20259356.720    82958677.53049  20259354.420
  79502058.683 9
  22196694.080   116644392.888 9  22196693.100    90891736.80847

  23357916.400   122746680.872 8  23357915.280    95646733.21846

  20497166.800   107713337.630 9  20497165.260    83932455.25548

  23855058.960   125359153.440 8  23855058.760    97682452.89245

  24264328.720   127509913.468 7  24264331.060    99358385.00144  24264331.200
  95218446.683 7
  20951681.340   110101822.624 9  20951683.180    85793622.57149  20951683.080
  82218896.179 9
  22404398.000   117735908.152 8  22404397.480    91742229.85548

  21915164.180   115164969.162 9  21915165.200    89738950.39749  21915163.640
  85999798.911 9
  23347038.960   125022326.570 8  23347039.560    97239586.897 5

  20346667.160   108764599.836 9  20346668.160    84594708.348 8

  21194486.960   113097864.109 8

  22033236.760   117656283.509 8  22033237.580    91510419.521 7

  21797069.400   116476922.968 9  21797070.720    90593168.670 7

  19067614.780   101855772.498 8  19067615.600    79221152.054 7

  24381129.120   130468344.407 8  24381129.700   101475373.841 5

 20  3  7  0 12  0.0000000  0 17G10G12G14G15G20G21G24G25G31G32R04R05
                                R06R09R15R16R21
  20255440.720   106443060.048 9  20255441.980    82942647.22049  20255439.760
  79486696.306 9
  22202603.020   116675445.429 9  22202602.060    90915933.58547

  23349789.040   122703971.047 8  23349787.860    95613452.83946

  26063081.180

  20507783.320   107769127.733 9  20507781.760    83975928.05448

  23869365.140   125434333.980 7  23869365.080    97741035.04445

  24282405.320   127604906.718 6  24282407.780    99432405.71345  24282407.820
  95289383.165 6
  20945868.540   110071276.275 9  20945870.460    85769820.22749  20945870.460
  82196085.599 9
  22391597.020   117668638.719 8  22391596.560    91689812.13249

  21908290.740   115128848.623 9  21908291.680    89710804.52549  21908290.300
  85972825.790 8
  23360430.020   125094034.644 8  23360430.660    97295359.758 6

  20347297.440   108767968.279 9  20347298.300    84597328.236 8

  21178980.100   113015116.612 8

  22012338.320   117544686.600 9  22012339.080    91423621.948 7

  21817831.580   116587868.962 9  21817832.860    90679459.985 7

  19069022.540   101863292.528 8  19069023.420    79227000.973 7

  24393168.180   130532768.052 7  24393169.180   101525481.062 6

 20  3  7  0 12 30.0000000  0 16G10G12G14G20G21G24G25G31G32R04R05R06
                                R09R15R16R21
  20251626.020   106423013.646 9  20251627.240    82927026.64649  20251625.060
  79471726.584 9
  22208621.400   116707072.460 8  22208620.260    90940578.04648

  23341651.860   122661209.355 8  23341650.580    95580132.05046

  20518492.520   107825405.218 9  20518491.020    84019780.63448

  23883656.600   125509436.482 7  23883656.520    97799556.39746

  24300468.800   127699830.271 6  24300471.280    99506372.03845  24300471.180
  95360267.544 7
  20940163.720   110041296.910 9  20940165.560    85746459.69549  20940165.720
  82173698.429 9
  22378864.200   117601726.245 8  22378863.600    91637672.54348

  21901417.260   115092728.804 9  21901418.340    89682659.21549  21901416.840
  85945853.205 8
  23373885.000   125166084.361 8  23373885.720    97351398.367 6

  20348006.180   108771757.285 9  20348006.880    84600275.232 8

  21163486.680   112932440.536 8

  21991505.880   117433441.278 9  21991506.460    91337097.820 7

  21838647.540   116699103.977 9  21838649.060    90765976.069 7

  19070574.480   101871581.808 8  19070575.280    79233448.203 7

  24405240.000   130597366.251 7  24405241.180   101575724.095 4

 20  3  7  0 13  0.0000000  0 16G10G12G14G20G21G24G25G31G32R04R05R06
                                R09R15R16R21
  20247912.600   106403499.553 9  20247913.820    82911820.84749  20247911.580
  79457154.360 9
  22214749.840   116739278.352 9  22214748.860    90965673.55047

  23333505.400   122618400.165 7  23333504.260    95546774.26246

  20529295.180   107882173.675 9  20529293.680    84064015.77248

  23897933.780   125584463.251 8  23897933.500    97858018.73345

  24318519.780   127794687.227 6  24318522.040    99580286.49446  24318522.220
  95431102.241 7
  20934567.980   110011891.145 9  20934569.740    85723546.12649  20934570.060
  82151739.590 9
  22366200.080   117535176.044 8  22366199.480    91585815.24448

  21894544.940   115056615.036 9  21894546.140    89654518.61949  21894544.480
  85918885.126 9
  23387404.860   125238480.555 8  23387405.440    97407706.444 6

  20348794.940   108775973.766 9  20348795.780    84603554.703 8

  21148007.960   112849843.301 8

  21970740.500   117322555.825 9  21970741.240    91250853.592 7

  21859517.900   116810628.778 9  21859519.420    90852717.577 7

  19072271.040   101880643.886 8  19072271.680    79240496.483 7

  24417344.240   130662139.838 5  24417345.460   101626115.690 5

 20  3  7  0 13 30.0000000  0 16G10G12G14G20G21G24G25G31G32R04R05R06
                                R09R15R16R21
  20244300.020   106384514.944 9  20244301.200    82897027.64149  20244298.960
  79442977.539 9
  22220987.740   116772058.197 9  22220986.520    90991216.30047

  23325349.000   122575538.900 8  23325347.960    95513375.89445

  20540190.160   107939427.102 9  20540188.640    84108628.83248

  23912195.380   125659407.469 7  23912194.780    97916416.73245

  24336556.900   127889472.018 6  24336559.080    99654144.76446  24336559.700
  95501883.074 7
  20929080.980   109983056.387 9  20929082.700    85701077.50249  20929083.000
  82130207.168 9
  22353604.420   117468984.540 9  22353603.460    91534237.45749

  21887673.160   115020503.336 9  21887674.400    89626379.65149  21887672.740
  85891918.623 9
  23400988.100   125311218.405 8  23400988.740    97464280.270 5

  20349663.320   108780615.614 9  20349664.120    84607165.029 8

  21132543.720   112767323.354 8

  21950042.060   117212028.821 9  21950043.020    91164888.163 7

  21880441.020   116922434.826 9  21880442.520    90939677.828 7

  19074111.180   101890472.841 8  19074111.540    79248141.228 7

  24429480.420   130727080.318 8  24429482.040   101676623.856 4

 20  3  7  0 14  0.0000000  0 16G10G12G14G20G21G24G25G31G32R04R05R06
                                R09R15R16R21
  20240788.940   106366063.907 9  20240790.080    82882650.20449  20240787.840
  79429199.158 9
  22227335.200   116805413.631 9  22227333.820    91017207.55847

  23317183.260   122532627.773 8  23317182.140    95479938.65646

  20551177.700   107997167.025 9  20551176.280    84153620.97248

  23926441.340   125734269.301 7  23926440.560    97974750.56045

  24354580.420   127984185.608 7  24354582.420    99727947.50146  24354583.000
  95572610.688 6
  20923703.480   109954796.937 9  20923705.200    85679057.16249  20923705.340
  82109104.342 9
  22341077.900   117403155.018 9  22341076.480    91482941.73249

  21880802.340   114984396.768 9  21880803.520    89598244.64449  21880801.900
  85864955.906 9
  23414635.460   125384300.137 8  23414635.960    97521121.534 6

  20350612.100   108785687.397 9  20350612.720    84611109.735 8

  21117094.820   112684886.528 8

  21929412.020   117101866.250 9  21929413.040    91079206.182 8

  21901416.500   117034520.756 9  21901418.140    91026855.765 7

  19076095.020   101901069.790 8  19076095.300    79256383.299 7

  24441647.080   130792186.496 7  24441647.600   101727262.094 6

 20  3  7  0 14 30.0000000  0 16G10G12G14G20G21G24G25G31G32R04R05R06
                                R09R15R16R21
  20237379.980   106348148.595 9  20237380.960    82868690.21749  20237378.680
  79415820.827 9
  22233791.960   116839344.696 9  22233790.780    91043647.33947

  23309008.000   122489666.949 8  23309006.900    95446462.70246

  20562257.740   108055392.463 9  20562256.220    84198991.43548

  23940671.100   125809047.006 7  23940670.360    98033018.83445

  24372590.300   128078827.475 6  24372592.100    99801694.40045  24372592.800
  95643284.784 7
  20918435.860   109927115.108 9  20918437.500    85657486.91749  20918437.560
  82088432.858 9
  22328620.240   117337688.036 9  22328618.480    91431928.51349

  21873932.520   114948296.303 9  21873933.800    89570114.42249  21873932.120
  85837997.780 9
  23428347.320   125457726.158 8  23428347.660    97578230.601 6

  20351641.940   108791191.726 9  20351642.440    84615390.871 8

  21101662.420   112602536.514 8

  21908850.920   116992071.754 9  21908852.060    90993810.494 8

  21922443.440   117146882.970 9  21922445.240    91114248.572 7

  19078222.360   101912434.123 8  19078222.640    79265222.227 7

  24453844.000   130857454.852 7  24453847.340   101778030.147 5

 20  3  7  0 15  0.0000000  0 16G10G12G14G20G21G24G25G31G32R04R05R06
                                R09R15R16R21
  20234073.200   106330770.771 9  20234074.160    82855149.04949  20234071.800
  79402843.880 9
  22240358.400   116873850.536 9  22240357.200    91070535.00447

  23300823.460   122446656.591 8  23300822.460    95412948.13946

  20573429.820   108114101.919 9  20573428.300    84244739.05348

  23954884.280   125883738.672 7  23954883.900    98091220.03445

  24390586.300   128173396.371 7  24390587.820    99875384.42445  24390588.320
  95713904.385 7
  20913278.540   109900012.848 9  20913279.980    85636368.27849  20913280.060
  82068194.171 9
  22316231.700   117272585.009 9  22316229.700    91381198.89649

  21867063.980   114912202.712 9  21867065.380    89541989.55849  21867063.720
  85811044.774 9
  23442123.520   125531496.064 8  23442123.380    97635607.092 5

  20352752.980   108797131.203 9  20352753.580    84620010.460 8

  21086247.000   112520276.039 8

  21888359.580   116882649.045 9  21888360.840    90908703.955 7

  21943521.200   117259517.534 8  21943523.260    91201853.201 7

  19080493.100   101924564.070 8  19080493.380    79274656.639 7

  24466070.320   130922882.605 7  24466070.000   101828899.680 5

 20  3  7  0 15 30.0000000  0 17G10G12G14G20G21G24G25G26G31G32R04R05
                                R06R09R15R16R21
  20230868.580   106313930.132 9  20230869.500    82842026.46349  20230867.100
  79390268.071 9
  22247033.700   116908929.185 9  22247032.320    91097869.02547

  23292629.040   122403594.533 8  23292628.080    95379393.29846

  20584693.360   108173292.581 9  20584691.900    84290861.64748

  23969080.520   125958340.101 7  23969080.300    98149350.95045

  24408567.500   128267888.922 6  24408569.240    99949014.93645  24408569.280
  95784466.923 7
  20908231.480   109873490.009 9  20908232.840    85615701.14049  20908232.860
  82048388.169 9
  25593203.500                                                    25593206.620
 100433241.845 6
  22303911.960   117207844.446 9  22303910.100    91330751.71949

  21860196.620   114876114.718 9  21860198.060    89513869.05349  21860196.460
  85784095.963 9
  23455963.500   125605607.674 8  23455963.280    97693249.368 6

  20353945.440   108803506.074 9  20353946.140    84624968.697 8

  21070848.620   112438106.916 8

  21867938.060   116773599.254 9  21867939.220    90823887.474 7

  21964649.060   117372418.802 9  21964651.040    91289665.286 7

  19082906.620   101937456.687 8  19082906.960    79284684.230 7

  24478325.600   130988461.802 8  24478326.860   101879905.525 5

 20  3  7  0 16  0.0000000  0 17G10G12G14G20G21G24G25G26G31G32R04R05
                                R06R09R15R16R21
  20227767.020   106297630.975 9  20227767.820    82829325.83349  20227765.440
  79378096.611 9
  22253818.160   116944582.362 9  22253816.680    91125650.75047

  23284425.100   122360483.153 8  23284424.220    95345800.06346

  20596048.640   108232965.432 9  20596047.300    84337359.97648

  23983259.680   126032851.843 7  23983259.540    98207411.95945

  24426534.740   128362307.339 7  24426536.800   100022587.68045  24426536.440
  95854974.134 7
  20903295.540   109847551.080 9  20903296.880    85595489.01349  20903296.840
  82029018.199 9
  25572676.340   134385317.06015  25572680.100   104715849.23244  25572679.900
 100352685.642 5
  22291661.820   117143469.500 9  22291660.100    91280589.46249

  21853331.060   114840035.631 9  21853332.420    89485755.50449  21853330.860
  85757153.774 9
  23469867.340   125680063.651 8  23469867.560    97751159.520 6

  20355220.440   108810321.257 9  20355221.180    84630269.410 8

  21055468.360   112356034.384 8

  21847587.540   116664928.495 9  21847588.580    90739365.806 8

  21985826.640   117485585.414 9  21985828.460    91377683.764 7

  19085462.980   101951112.805 8  19085463.420    79295305.678 7

  24490609.060   131054192.342 7  24490608.340   101931047.399 5

 20  3  7  0 16 30.0000000  0 17G10G12G14G20G21G24G25G26G31G32R04R05
                                R06R09R15R16R21
  20224767.740   106281869.807 9  20224768.500    82817044.37549  20224766.140
  79366326.894 9
  22260711.120   116980804.202 9  22260709.680    91153875.55047

  23276210.880   122317317.327 8  23276210.140    95312164.36147

  20607494.360   108293114.116 9  20607493.220    84384229.05248

  23997420.380   126107266.685 7  23997420.040    98265397.46445

  24444486.580   128456644.430 6  24444488.620   100096097.05845  24444488.020
  95925420.620 7
  20898469.980   109822192.762 9  20898471.460    85575729.26649  20898471.320
  82010081.787 9
  25552123.700   134277311.488 5  25552127.760   104631689.01045  25552126.980
 100272032.126 5
  22279480.340   117079455.782 9  22279478.660    91230708.63049

  21846466.200   114803961.000 9  21846467.560    89457645.39149  21846466.120
  85730214.932 9
  23483834.100   125754858.342 8  23483835.160    97809333.093 6

  20356577.100   108817573.797 9  20356577.940    84635910.247 8

  21040105.840   112274056.940 8

  21827307.720   116556635.124 9  21827308.860    90655137.636 8

  22007052.080   117599008.251 9  22007053.820    91465901.485 7

  19088161.140   101965526.049 8  19088161.580    79306515.954 7

  24502918.980   131120065.208 7  24502920.200   101982281.636 5

 20  3  7  0 17  0.0000000  0 16G10G12G14G20G21G24G25G26G31G32R04R05
                                R06R09R15R16
  20221871.140   106266648.445 9  20221872.020    82805183.56549  20221869.640
  79354960.284 9
  22267712.080   117017594.766 9  22267710.740    91182543.49947

  23267986.440   122274097.356 8  23267985.700    95278486.46546

  20619030.540   108353737.485 9  20619029.400    84431468.03348

  24011562.340   126181582.803 7  24011562.060    98323306.02545

  24462422.520   128550899.729 7  24462424.660   100169542.72145  24462424.420
  95995806.049 7
  20893755.240   109797416.973 9  20893756.840    85556423.46249  20893756.580
  81991580.403 9
  25531545.980   134169176.765 4  25531550.480   104547428.15244  25531549.660
 100191282.104 4
  22267367.840   117015804.278 9  22267366.280    91181110.07449

  21839602.500   114767891.735 9  21839603.720    89429539.47449  21839602.420
  85703280.093 9
  23497864.300   125829991.835 7  23497866.140    97867770.155 6

  20358016.120   108825266.039 9  20358016.780    84641893.106 8

  21024761.700   112192177.560 8

  21807099.200   116448722.477 9  21807100.380    90571205.598 8

  22028324.980   117712683.762 9  22028326.580    91554315.744 7

  19091000.820   101980694.891 8  19091001.220    79318313.944 7

 20  3  7  0 17 30.0000000  0 17G10G12G14G20G21G24G25G26G31G32R04R05
                                R06R09R15R16R21
  20219078.520   106251973.703 9  20219079.480    82793748.69349  20219077.180
  79344001.863 9
  22274822.240   117054958.278 9  22274820.920    91211657.94147

  23259752.680   122230828.245 8  23259751.980    95244770.28346

  20630657.940   108414839.322 9  20630656.640    84479079.84448

  24025686.220   126255803.531 7  24025686.080    98381140.28745

  24480343.800   128645077.561 6  24480346.060   100242927.99546  24480346.240
  96066133.584 7
  20889152.660   109773230.696 9  20889154.400    85537577.01249  20889154.060
  81973519.219 9
  25510945.080   134060921.103 6  25510950.360   104463073.05045  25510949.040
 100110441.777 5
  22255325.140   116952520.671 9  22255323.840    91131798.17749

  21832740.980   114731833.794 9  21832742.060    89401442.36749  21832740.840
  85676353.700 9
  23511959.320   125905468.975 8  23511961.080    97926474.491 6

  20359538.700   108833405.543 9  20359539.360    84648223.819 8

  21009437.620   112110405.092 8

  21786963.540   116341198.919 9  21786964.700    90487576.188 8

  22049645.580   117826613.414 9  22049646.800    91642927.681 7

  19093982.560   101996623.188 8  19093983.080    79330702.622 7

  24527614.820   131252217.190 5  24527619.460   102085071.245 6

 20  3  7  0 18  0.0000000  0 17G10G12G14G20G21G24G25G26G31G32R04R05
                                R06R09R15R16R21
  20216389.580   106237843.254 9  20216390.580    82782737.94949  20216388.300
  79333449.904 9
  22282040.400   117092890.070 9  22282039.080    91241215.17347

  23251508.640   122187506.025 8  23251508.040    95211012.71346

  20642375.500   108476414.573 9  20642374.000    84527060.54448

  24039790.960   126329922.735 7  24039790.700    98438895.42345

  24498249.420   128739172.631 6  24498251.600   100316248.79646  24498252.020
  96136399.355 6
  20884661.820   109749631.787 9  20884663.680    85519188.24849  20884663.380
  81955896.659 9
  25490321.120   133952542.250 4  25490326.540   104378621.79544  25490325.200
 100029509.469 4
  22243351.880   116889601.840 9  22243350.720    91082770.52649

  21825881.100   114695783.998 9  21825882.200    89373351.61849  21825880.860
  85649433.401 9
  23526117.880   125981285.574 8  23526119.680    97985442.867 6

  20361144.660   108841990.675 9  20361145.440    84654901.135 8

  20994133.160   112028738.527 7

  21766900.780   116234064.401 9  21766901.720    90404249.373 8

  22071012.220   117940789.410 9  22071013.160    91731731.209 7

  19097105.540   102013305.447 8  19097106.080    79343677.717 7

  24540002.260   131318501.274 7  24540002.600   102136627.375 4

 20  3  7  0 18 30.0000000  0 17G10G12G14G20G21G24G25G26G31G32R04R05
                                R06R09R15R16R21
  20213804.520   106224258.785 9  20213805.580    82772152.65149  20213803.280
  79323305.658 9
  22289366.640   117131389.847 9  22289365.320    91271215.01247

  23243254.780   122144131.477 8  23243253.940    95177214.37446

  20654182.800   108538462.016 9  20654181.220    84575409.20548

  24053875.920   126403938.561 7  24053875.320    98496569.98945

  24516139.080   128833183.981 6  24516141.360   100389504.34645  24516141.600
  96206602.579 7
  20880283.220   109726622.044 9  20880285.040    85501258.57649  20880284.800
  81938714.055 9
  25469674.540   133844043.094 5  25469680.200   104294077.00844  25469678.240
  99948487.148 5
  22231448.420   116827048.541 9  22231447.140    91034027.69849

  21819022.980   114659743.189 9  21819023.800    89345267.88649  21819022.520
  85622519.823 9
  23540339.680   126057441.470 8  23540341.320    98044675.170 6

  20362834.280   108851023.640 9  20362835.200    84661926.773 8

  20978849.300   111947181.509 8

  21746911.600   116127322.016 9  21746911.980    90321227.554 8

  22092424.340   118055207.824 9  22092424.940    91820723.331 7

  19100369.500   102030740.364 8  19100369.940    79357238.212 7

  24552413.040   131384914.065 7  24552416.340   102188282.848 6

 20  3  7  0 19  0.0000000  0 17G10G12G14G20G21G24G25G26G31G32R04R05
                                R06R09R15R16R21
  20211323.360   106211219.757 9  20211324.260    82761992.35949  20211322.040
  79313568.708 9
  22296800.680   117170455.342 9  22296799.160    91301655.64747

  23234990.260   122100701.720 8  23234989.480    95143373.01746

  20666079.220   108600978.094 9  20666077.700    84624123.01848

  24067940.440   126477847.104 7  24067939.380    98554160.97545

  24534012.320   128927108.922 6  24534014.860   100462692.56346  24534015.320
  96276741.261 7
  20876016.640   109704201.054 9  20876018.380    85483787.68549  20876018.220
  81921971.118 9
  25449004.540   133735420.076 5  25449010.380   104209437.95643  25449009.180
  99867375.039 5
  22219614.080   116764859.497 8  22219613.020    90985568.71148

  21812166.300   114623710.070 9  21812166.880    89317190.12949  21812165.740
  85595611.970 9
  23554624.380   126133934.174 8  23554626.060    98104169.381 6

  20364607.900   108860504.541 9  20364608.720    84669300.803 8

  20963586.000   111865734.717 7

  21726995.880   116020972.923 9  21726996.180    90238511.622 8

  22113880.500   118169862.984 9  22113881.240    91909899.516 7

  19103773.500   102048923.863 8  19103773.880    79371380.937 7

  24564846.680   131451449.873 3  24564850.560   102240032.833 6

 20  3  7  0 19 30.0000000  0 17G10G12G14G20G21G24G25G26G31G32R04R05
                                R06R09R15R16R21
  20208946.880   106198730.414 9  20208947.620    82752260.39949  20208945.380
  79304242.237 9
  22304342.280   117210087.035 9  22304340.820    91332537.49247

  23226715.680   122057219.570 8  23226714.900    95109490.82546

  20678064.940   108663963.754 9  20678063.620    84673202.73648

  24081984.380   126551648.698 7  24081983.620    98611668.58845

  24551869.180   129020947.911 6  24551872.100   100535813.81145  24551872.420
  96346815.790 6
  20871862.840   109682373.247 9  20871864.700    85466778.99749  20871864.540
  81905671.132 9
  25428315.280   133626711.774 5  25428318.520   104124691.85044  25428317.880
  99786179.138 5
  22207849.460   116703037.652 9  22207848.840    90937395.84749

  21805311.580   114587688.108 9  21805312.120    89289121.06849  21805311.060
  85568712.461 9
  23568972.480   126210765.941 8  23568973.440    98163927.347 6

  20366466.100   108870438.254 9  20366467.040    84677027.020 8

  20948344.840   111784404.636 8

  21707155.180   115915023.224 9  21707155.220    90156106.314 8

  22135380.980   118284753.833 9  22135381.660    91999259.041 7

  19107317.720   102067857.053 8  19107318.260    79386106.745 7

  24577303.580   131518107.487 5  24577304.740   102291875.646 3

 20  3  7  0 20  0.0000000  0 16G10G12G14G20G21G24G25G26G31G32R04R05
                                R06R09R15R16
  20206674.880   106186790.556 9  20206675.540    82742956.60549  20206673.340
  79295326.103 9
  22311991.240   117250282.915 9  22311990.040    91363858.94647

  23218430.920   122013683.156 8  23218430.180    95075566.36946

  20690139.460   108727416.363 9  20690138.300    84722646.31548

  24096007.180   126625339.706 7  24096006.820    98669090.07045

  24569709.880   129114699.092 6  24569712.480   100608866.63245  24569712.720
  96416824.755 7
  20867822.040   109661138.503 9  20867823.860    85450232.45149  20867823.740
  81889814.018 9
  25407601.620   133517843.094 5  25407606.800   104039874.73245  25407604.640
  99704896.017 4
  22196154.860   116641581.996 8  22196154.360    90889508.31649

  21798458.680   114551676.403 9  21798459.260    89261059.99849  21798458.260
  85541820.608 9
  23583383.520   126287934.877 8  23583384.280    98223947.533 6

  20368409.320   108880825.269 9  20368410.300    84685105.801 8

  20933125.700   111703192.469 8

  21687389.500   115809474.837 9  21687389.360    90074013.129 8

  22156924.440   118399874.851 9  22156925.000    92088797.607 7

  19111001.660   102087536.582 8  19111002.280    79401413.056 7

 20  3  7  0 20 30.0000000  0 17G10G12G14G20G21G24G25G26G31G32R04R05
                                R06R09R15R16R21
  20204508.020   106175403.955 9  20204508.740    82734083.92449  20204506.480
  79286823.112 9
  22319748.120   117291045.187 8  22319746.820    91395621.76647

  23210136.240   121970094.928 8  23210135.800    95041601.53746

  20702303.000   108791336.486 9  20702301.840    84772454.18948

  24110009.160   126698920.432 7  24110009.020    98726425.62945

  24587533.980   129208364.053 6  24587536.400   100681852.26746  24587536.680
  96486769.334 6
  20863894.840   109640500.731 9  20863896.580    85434151.07849  20863896.500
  81874402.696 9
  25386867.120   133408884.994 6  25386871.820   103954972.39744  25386870.260
  99623531.053 5
  22184530.460   116580495.356 8  22184529.860    90841908.34448

  21791608.440   114515678.070 9  21791609.060    89233009.34849  21791607.960
  85514938.728 9
  23597857.700   126365442.857 7  23597858.360    98284231.417 5

  20370438.140   108891670.007 9  20370438.960    84693540.597 8

  20917929.960   111622104.744 7

  21667699.780   115704333.095 9  21667699.580    89992236.247 8

  22178510.180   118515224.305 9  22178511.240    92178513.825 7

  19114825.440   102107962.763 8  19114826.120    79417300.084 7

  24602282.600   131651778.675 7  24602284.200   102395841.050 1

 20  3  7  0 21  0.0000000  0 17G10G12G14G20G21G24G25G26G31G32R04R05
                                R06R09R15R16R21
  20202445.820   106164567.528 9  20202446.680    82725639.94649  20202444.300
  79278730.975 9
  22327611.360   117332368.179 9  22327610.440    91427821.48847

  23201830.820   121926450.477 8  23201830.500    95007592.88145

  20714554.520   108855718.103 9  20714553.200    84822621.66348

  24123988.820   126772384.214 7  24123988.640    98783670.03344

  24605340.500   129301936.718 7  24605342.820   100754766.01345  24605342.800
  96556644.968 6
  20860080.560   109620456.982 9  20860082.360    85418532.57349  20860082.340
  81859434.974 9
  25366111.840   133299815.288 6  25366116.060   103869982.85544  25366114.680
  99542082.884 6
  22172975.580   116519773.908 9  22172974.700    90794592.93949

  21784759.980   114479689.365 9  21784760.660    89204966.20549  21784759.520
  85488064.055 9
  23612394.420   126443284.988 7  23612395.220    98344775.193 6

  20372552.140   108902970.089 9  20372552.880    84702329.525 8

  20902757.060   111541139.365 7

  21648085.740   115599596.489 9  21648085.800    89910774.464 8

  22200137.520   118630793.865 9  22200138.680    92268401.224 7

  19118787.820   102129129.917 8  19118788.740    79433763.427 7

  24614803.680   131718770.060 7  24614804.320   102447940.651 4

 20  3  7  0 21 30.0000000  0 17G10G12G14G20G21G24G25G26G31G32R04R05
                                R06R09R15R16R21
  20200489.380   106154286.632 9  20200490.360    82717628.85449  20200487.940
  79271053.675 9
  22335581.860   117374254.929 8  22335581.120    91460460.50247

  23193515.640   121882753.698 8  23193515.260    94973543.47846

  20726894.340   108920563.701 9  20726892.880    84873150.68648

  24137946.660   126845733.171 7  24137946.780    98840824.97044

  24623130.000   129395419.955 6  24623131.860   100827610.05045  24623131.700
  96626453.816 7
  20856380.380   109601012.752 9  20856382.220    85403381.23349  20856382.260
  81844914.955 9
