%  GPST                  latitude(deg) longitude(deg)  height(m)   Q  ns   sdn(m)   sde(m)   sdu(m)  sdne(m)  sdeu(m)  sdun(m) age(s)  ratio
2020/03/07 00:00:00.000   22.372014184  113.927982382    98.7796   5   9   1.9321   1.9141   4.3148  -0.2026  -1.4332  -0.6289   0.00    0.0
2020/03/07 00:00:30.000   22.372013311  113.927982696    98.7499   5   9   1.9314   1.9147   4.3064  -0.2089  -1.4211  -0.6166   0.00    0.0
2020/03/07 00:01:00.000   22.372013015  113.927982382    98.6029   5   9   1.9308   1.9154   4.2981  -0.2147  -1.4090  -0.6044   0.00    0.0
2020/03/07 00:01:30.000   22.372012952  113.927982374    98.4417   5   9   1.9302   1.9161   4.2899  -0.2199  -1.3967  -0.5923   0.00    0.0
2020/03/07 00:02:00.000   22.372011436  113.927981628    98.4570   5   9   1.9295   1.9168   4.2818  -0.2247  -1.3843  -0.5803   0.00    0.0
2020/03/07 00:02:30.000   22.372011039  113.927981651    98.4641   5   9   1.9289   1.9176   4.2738  -0.2291  -1.3718  -0.5684   0.00    0.0
2020/03/07 00:03:00.000   22.372011276  113.927982512    98.5694   5   9   1.9283   1.9185   4.2659  -0.2331  -1.3592  -0.5567   0.00    0.0
2020/03/07 00:03:30.000   22.372010315  113.927982711    98.4832   5   9   1.9278   1.9198   4.2583  -0.2391  -1.3459  -0.5461   0.00    0.0
2020/03/07 00:04:00.000   22.372009883  113.927982502    98.2481   5   9   1.9272   1.9208   4.2507  -0.2425  -1.3330  -0.5347   0.00    0.0
2020/03/07 00:04:30.000   22.372010040  113.927982719    98.0546   5   9   1.9265   1.9218   4.2432  -0.2455  -1.3200  -0.5235   0.00    0.0
2020/03/07 00:05:00.000   22.372011832  113.927983289    97.9423   5   9   1.9259   1.9229   4.2358  -0.2482  -1.3069  -0.5124   0.00    0.0
2020/03/07 00:05:30.000   22.372012151  113.927982978    97.8065   5   9   1.9253   1.9241   4.2286  -0.2506  -1.2936  -0.5015   0.00    0.0
2020/03/07 00:06:00.000   22.372012430  113.927983524    97.7431   5   9   1.9246   1.9253   4.2215  -0.2527  -1.2802  -0.4908   0.00    0.0
2020/03/07 00:06:30.000   22.372013229  113.927984327    97.6662   5   9   1.9240   1.9265   4.2145  -0.2545  -1.2667  -0.4802   0.00    0.0
2020/03/07 00:07:00.000   22.372013747  113.927984872    97.6808   5   9   1.9233   1.9278   4.2077  -0.2561  -1.2530  -0.4697   0.00    0.0
2020/03/07 00:07:30.000   22.372012453  113.927984482    97.8480   5   9   1.9226   1.9292   4.2009  -0.2573  -1.2392  -0.4594   0.00    0.0
2020/03/07 00:08:00.000   22.372013387  113.927984426    97.9717   5   9   1.9220   1.9306   4.1944  -0.2583  -1.2252  -0.4493   0.00    0.0
2020/03/07 00:08:30.000   22.372013914  113.927984260    98.2549   5   9   1.9213   1.9321   4.1879  -0.2591  -1.2110  -0.4394   0.00    0.0
2020/03/07 00:09:00.000   22.372012967  113.927983182    98.3426   5   9   1.9216   1.9337   4.1843  -0.2624  -1.1952  -0.4404   0.00    0.0
2020/03/07 00:09:30.000   22.372012715  113.927982562    98.4005   5   9   1.9211   1.9353   4.1783  -0.2630  -1.1806  -0.4320   0.00    0.0
2020/03/07 00:10:00.000   22.372013623  113.927983741    98.5398   5   9   1.9205   1.9370   4.1725  -0.2633  -1.1657  -0.4239   0.00    0.0
2020/03/07 00:10:30.000   22.372013842  113.927985360    98.3644   5   9   1.9199   1.9387   4.1668  -0.2635  -1.1506  -0.4161   0.00    0.0
2020/03/07 00:11:00.000   22.372013573  113.927985306    98.1677   5   9   1.9193   1.9405   4.1612  -0.2635  -1.1354  -0.4085   0.00    0.0
2020/03/07 00:11:30.000   22.372013079  113.927983994    98.0395   5   9   1.9187   1.9424   4.1558  -0.2632  -1.1199  -0.4012   0.00    0.0
2020/03/07 00:12:00.000   22.372012066  113.927985006    97.7792   5   9   1.9182   1.9443   4.1505  -0.2628  -1.1041  -0.3941   0.00    0.0
2020/03/07 00:12:30.000   22.372011953  113.927985828    97.8559   5   9   1.9176   1.9462   4.1453  -0.2621  -1.0882  -0.3873   0.00    0.0
2020/03/07 00:13:00.000   22.372012379  113.927985209    98.0148   5   9   1.9170   1.9483   4.1451  -0.2615  -1.0734  -0.3785   0.00    0.0
2020/03/07 00:13:30.000   22.372012999  113.927984604    98.1411   5   9   1.9164   1.9504   4.1407  -0.2605  -1.0570  -0.3722   0.00    0.0
2020/03/07 00:14:00.000   22.372013497  113.927985397    98.2357   5   9   1.9254   1.9526   4.1519  -0.2638  -1.0425  -0.2561   0.00    0.0
2020/03/07 00:14:30.000   22.372014653  113.927985893    98.0030   5   9   1.9258   1.9549   4.1496  -0.2628  -1.0258  -0.2322   0.00    0.0
2020/03/07 00:15:00.000   22.372014290  113.927985741    97.8942   5   9   1.9262   1.9572   4.1475  -0.2615  -1.0088  -0.2059   0.00    0.0
2020/03/07 00:15:30.000   22.372014391  113.927985996    97.8076   5   9   1.9266   1.9595   4.1455  -0.2600  -0.9914  -0.1762   0.00    0.0
2020/03/07 00:16:00.000   22.372014321  113.927986298    97.6984   5   9   1.9271   1.9620   4.1438  -0.2583  -0.9736  -0.1411   0.00    0.0
2020/03/07 00:16:30.000   22.372013671  113.927985659    97.8152   5   9   1.9275   1.9645   4.1423  -0.2564  -0.9555  -0.0947   0.00    0.0
2020/03/07 00:17:00.000   22.372013505  113.927986742    97.7780   5   9   1.9279   1.9670   4.1409  -0.2543  -0.9370   0.0423   0.00    0.0
2020/03/07 00:17:30.000   22.372013159  113.927986209    97.8434   5   9   1.9284   1.9697   4.1398  -0.2519  -0.9180   0.1112   0.00    0.0
2020/03/07 00:18:00.000   22.372013834  113.927985798    97.8203   5   9   1.9288   1.9724   4.1388  -0.2493  -0.8986   0.1509   0.00    0.0
2020/03/07 00:18:30.000   22.372013775  113.927986877    97.8566   5   9   1.9293   1.9751   4.1381  -0.2465  -0.8787   0.1817   0.00    0.0
2020/03/07 00:19:00.000   22.372013378  113.927985896    97.8849   5   9   1.9297   1.9780   4.1375  -0.2435  -0.8583   0.2075   0.00    0.0
2020/03/07 00:19:30.000   22.372013210  113.927985420    97.5831   5   9   1.9326   1.9814   4.1374  -0.2490  -0.8382   0.2381   0.00    0.0
2020/03/07 00:20:00.000   22.372012694  113.927985420    97.5575   5   9   1.9333   1.9844   4.1372  -0.2464  -0.8167   0.2585   0.00    0.0
2020/03/07 00:20:30.000   22.372012350  113.927984578    97.7060   5   9   1.9340   1.9875   4.1373  -0.2435  -0.7945   0.2772   0.00    0.0
2020/03/07 00:21:00.000   22.372012800  113.927984917    97.6879   5   9   1.9347   1.9907   4.1376  -0.2404  -0.7716   0.2944   0.00    0.0
2020/03/07 00:21:30.000   22.372013080  113.927985873    97.6895   5   9   1.9355   1.9939   4.1381  -0.2370  -0.7478   0.3104   0.00    0.0
2020/03/07 00:22:00.000   22.372012801  113.927986846    97.7371   5   9   1.9362   1.9972   4.1387  -0.2334  -0.7232   0.3254   0.00    0.0
2020/03/07 00:22:30.000   22.372012951  113.927987424    97.8820   5   8   2.0410   2.1966   4.7737   0.7288  -1.6257  -1.1895   0.00    0.0
2020/03/07 00:23:00.000   22.372012906  113.927988439    97.9110   5   8   2.0400   2.1980   4.7718   0.7248  -1.6097  -1.1786   0.00    0.0
2020/03/07 00:23:30.000   22.372012891  113.927988403    98.0852   5   8   2.0390   2.1994   4.7702   0.7209  -1.5934  -1.1678   0.00    0.0
2020/03/07 00:24:00.000   22.372013705  113.927989145    97.9131   5   7   2.7753   2.2349   7.1217  -0.4666  -2.1312   2.9370   0.00    0.0
2020/03/07 00:24:30.000   22.372014496  113.927987904    98.4305   5   7   2.7741   2.2358   7.1423  -0.4637  -2.1163   2.9497   0.00    0.0
2020/03/07 00:25:00.000   22.372014773  113.927987258    98.5772   5   7   2.7727   2.2367   7.1625  -0.4600  -2.1009   2.9619   0.00    0.0
2020/03/07 00:25:30.000   22.372015703  113.927986575    98.8193   5   7   2.7712   2.2376   7.1823  -0.4554  -2.0849   2.9733   0.00    0.0
2020/03/07 00:26:00.000   22.372014532  113.927986431    98.7510   5   7   2.7694   2.2386   7.2016  -0.4500  -2.0683   2.9842   0.00    0.0
2020/03/07 00:26:30.000   22.372013386  113.927986354    98.4807   5   7   2.7675   2.2396   7.2205  -0.4437  -2.0510   2.9944   0.00    0.0
2020/03/07 00:27:00.000   22.372013226  113.927985262    98.6810   5   7   2.7654   2.2407   7.2390  -0.4364  -2.0330   3.0040   0.00    0.0
2020/03/07 00:27:30.000   22.372011894  113.927984432    98.6997   5   7   2.7684   2.2457   7.2634  -0.4013  -2.0043   3.0216   0.00    0.0
2020/03/07 00:28:00.000   22.372011356  113.927984899    98.4708   5   7   2.7663   2.2474   7.2815  -0.3887  -1.9838   3.0306   0.00    0.0
2020/03/07 00:28:30.000   22.372009831  113.927984253    98.4976   5   7   2.7640   2.2492   7.2991  -0.3748  -1.9625   3.0390   0.00    0.0
2020/03/07 00:29:00.000   22.372009453  113.927983408    98.0164   5   7   2.7616   2.2510   7.3162  -0.3596  -1.9405   3.0467   0.00    0.0
2020/03/07 00:29:30.000   22.372011208  113.927981262    98.0415   5   7   2.7603   2.2550   7.3357  -0.3549  -1.9125   3.0507   0.00    0.0
2020/03/07 00:30:00.000   22.372011558  113.927982152    98.6234   5   7   2.7576   2.2572   7.3521  -0.3384  -1.8882   3.0568   0.00    0.0
2020/03/07 00:30:30.000   22.372010560  113.927984296    98.6472   5   7   2.7546   2.2596   7.3679  -0.3202  -1.8630   3.0621   0.00    0.0
2020/03/07 00:31:00.000   22.372010624  113.927985814    98.7295   5   7   2.7515   2.2620   7.3832  -0.3000  -1.8370   3.0668   0.00    0.0
2020/03/07 00:31:30.000   22.372012591  113.927987380    99.0927   5   7   2.7482   2.2646   7.3979  -0.2774  -1.8100   3.0709   0.00    0.0
2020/03/07 00:32:00.000   22.372012461  113.927985697    99.3565   5   7   2.7446   2.2672   7.4121  -0.2518  -1.7820   3.0743   0.00    0.0
2020/03/07 00:32:30.000   22.372010442  113.927987114    98.6855   5   7   2.7409   2.2700   7.4257  -0.2222  -1.7531   3.0770   0.00    0.0
2020/03/07 00:33:00.000   22.372009330  113.927986233    98.2246   5   7   2.7369   2.2729   7.4387  -0.1868  -1.7231   3.0791   0.00    0.0
2020/03/07 00:33:30.000   22.372008056  113.927986991    97.8443   5   7   2.7328   2.2759   7.4511  -0.1415  -1.6921   3.0805   0.00    0.0
2020/03/07 00:34:00.000   22.372008063  113.927986542    97.8255   5   7   2.7285   2.2790   7.4630  -0.0688  -1.6599   3.0813   0.00    0.0
2020/03/07 00:34:30.000   22.372009236  113.927983968    98.0748   5   7   2.7240   2.2823   7.4744   0.1046  -1.6266   3.0815   0.00    0.0
2020/03/07 00:35:00.000   22.372010463  113.927982494    98.2637   5   7   2.7193   2.2857   7.4851   0.1641  -1.5920   3.0811   0.00    0.0
2020/03/07 00:35:30.000   22.372012128  113.927981640    98.5640   5   7   2.7145   2.2892   7.4954   0.2080  -1.5562   3.0800   0.00    0.0
2020/03/07 00:36:00.000   22.372012346  113.927982290    98.2644   5   7   2.7094   2.2929   7.5050   0.2447  -1.5190   3.0783   0.00    0.0
2020/03/07 00:36:30.000   22.372012127  113.927983739    98.4880   5   7   2.7042   2.2967   7.5142   0.2770  -1.4803   3.0760   0.00    0.0
2020/03/07 00:37:00.000   22.372011453  113.927985025    98.6815   5   7   2.6988   2.3007   7.5228   0.3063  -1.4401   3.0732   0.00    0.0
2020/03/07 00:37:30.000   22.372012562  113.927986089    99.0519   5   7   2.6933   2.3048   7.5308   0.3334  -1.3982   3.0697   0.00    0.0
2020/03/07 00:38:00.000   22.372012632  113.927986909    99.2924   5   7   2.6876   2.3090   7.5384   0.3587  -1.3545   3.0657   0.00    0.0
2020/03/07 00:38:30.000   22.372012785  113.927987044    98.9286   5   7   2.6818   2.3134   7.5454   0.3825  -1.3088   3.0610   0.00    0.0
2020/03/07 00:39:00.000   22.372013321  113.927986722    98.6430   5   7   2.6758   2.3180   7.5519   0.4051  -1.2610   3.0558   0.00    0.0
2020/03/07 00:39:30.000   22.372011954  113.927985449    98.6726   5   7   2.6697   2.3227   7.5579   0.4266  -1.2108   3.0501   0.00    0.0
2020/03/07 00:40:00.000   22.372011413  113.927984041    98.6534   5   8   1.9882   2.3215   4.9683  -0.3143  -1.5172  -0.9175   0.00    0.0
2020/03/07 00:40:30.000   22.372012160  113.927982526    98.7394   5   8   1.9854   2.3254   4.9813  -0.3254  -1.5030  -0.9157   0.00    0.0
2020/03/07 00:41:00.000   22.372012785  113.927981786    98.6439   5   8   1.9826   2.3294   4.9944  -0.3360  -1.4886  -0.9142   0.00    0.0
2020/03/07 00:41:30.000   22.372011911  113.927981740    98.7183   5   8   1.9798   2.3335   5.0077  -0.3462  -1.4737  -0.9128   0.00    0.0
2020/03/07 00:42:00.000   22.372011577  113.927982717    98.8209   5   8   1.9771   2.3376   5.0212  -0.3560  -1.4584  -0.9117   0.00    0.0
2020/03/07 00:42:30.000   22.372011445  113.927983827    98.5992   5   8   1.9745   2.3418   5.0348  -0.3655  -1.4427  -0.9108   0.00    0.0
2020/03/07 00:43:00.000   22.372011713  113.927984641    97.8691   5   8   1.9719   2.3461   5.0486  -0.3747  -1.4265  -0.9101   0.00    0.0
2020/03/07 00:43:30.000   22.372012481  113.927986476    97.8543   5   8   1.9693   2.3504   5.0625  -0.3836  -1.4099  -0.9096   0.00    0.0
2020/03/07 00:44:00.000   22.372012216  113.927985945    98.1383   5   8   1.9668   2.3549   5.0767  -0.3922  -1.3928  -0.9093   0.00    0.0
2020/03/07 00:44:30.000   22.372012288  113.927985405    98.3076   5   8   1.9643   2.3594   5.0909  -0.4006  -1.3751  -0.9093   0.00    0.0
2020/03/07 00:45:00.000   22.372011615  113.927986124    98.6339   5   8   1.9619   2.3639   5.1054  -0.4088  -1.3570  -0.9095   0.00    0.0
2020/03/07 00:45:30.000   22.372011648  113.927985533    98.9716   5   8   1.9595   2.3686   5.1200  -0.4167  -1.3382  -0.9100   0.00    0.0
2020/03/07 00:46:00.000   22.372012000  113.927985118    99.3655   5   8   1.9571   2.3733   5.1347  -0.4245  -1.3189  -0.9107   0.00    0.0
2020/03/07 00:46:30.000   22.372011641  113.927985090    99.5319   5   8   1.9548   2.3781   5.1496  -0.4321  -1.2990  -0.9117   0.00    0.0
2020/03/07 00:47:00.000   22.372011416  113.927985138    99.8022   5   8   1.9526   2.3830   5.1646  -0.4396  -1.2784  -0.9129   0.00    0.0
2020/03/07 00:47:30.000   22.372011331  113.927986629    99.7623   5   8   1.9503   2.3880   5.1798  -0.4469  -1.2571  -0.9143   0.00    0.0
2020/03/07 00:48:00.000   22.372010550  113.927986950    99.9651   5   8   1.9482   2.3930   5.1951  -0.4541  -1.2351  -0.9161   0.00    0.0
2020/03/07 00:48:30.000   22.372009955  113.927987492    99.9039   5   8   1.9460   2.3981   5.2106  -0.4611  -1.2123  -0.9180   0.00    0.0
2020/03/07 00:49:00.000   22.372008937  113.927987752    99.9284   5   8   1.9439   2.4034   5.2262  -0.4681  -1.1887  -0.9202   0.00    0.0
2020/03/07 00:49:30.000   22.372008715  113.927987141   100.0441   5   8   1.9419   2.4087   5.2420  -0.4749  -1.1641  -0.9227   0.00    0.0
2020/03/07 00:50:00.000   22.372009061  113.927988154    99.7561   5   8   1.9399   2.4141   5.2578  -0.4816  -1.1387  -0.9255   0.00    0.0
2020/03/07 00:50:30.000   22.372009035  113.927988877    99.4440   5   8   1.9379   2.4196   5.2739  -0.4883  -1.1122  -0.9285   0.00    0.0
2020/03/07 00:51:00.000   22.372009130  113.927988089    99.2818   5   8   1.9360   2.4252   5.2900  -0.4949  -1.0846  -0.9317   0.00    0.0
2020/03/07 00:51:30.000   22.372009716  113.927987543    98.9491   5   8   1.9341   2.4308   5.3063  -0.5014  -1.0558  -0.9352   0.00    0.0
2020/03/07 00:52:00.000   22.372010790  113.927987011    98.4950   5   8   1.9323   2.4366   5.3227  -0.5079  -1.0257  -0.9390   0.00    0.0
2020/03/07 00:52:30.000   22.372011276  113.927986134    98.2826   5   8   1.9305   2.4425   5.3393  -0.5143  -0.9941  -0.9430   0.00    0.0
2020/03/07 00:53:00.000   22.372011263  113.927985595    98.2615   5   8   1.9288   2.4484   5.3560  -0.5206  -0.9611  -0.9473   0.00    0.0
2020/03/07 00:53:30.000   22.372012251  113.927984138    98.6522   5   8   1.9271   2.4545   5.3728  -0.5270  -0.9262  -0.9518   0.00    0.0
2020/03/07 00:54:00.000   22.372012322  113.927983036    98.8536   5   8   1.9254   2.4607   5.3897  -0.5332  -0.8894  -0.9566   0.00    0.0
2020/03/07 00:54:30.000   22.372011504  113.927983153    98.9328   5   8   1.9238   2.4669   5.4067  -0.5395  -0.8504  -0.9616   0.00    0.0
2020/03/07 00:55:00.000   22.372011037  113.927982038    99.2131   5   8   1.9222   2.4733   5.4239  -0.5457  -0.8088  -0.9669   0.00    0.0
2020/03/07 00:55:30.000   22.372010266  113.927982359    99.1206   5   8   1.9207   2.4798   5.4412  -0.5520  -0.7643  -0.9724   0.00    0.0
2020/03/07 00:56:00.000   22.372009498  113.927984091    98.9710   5   8   1.9192   2.4863   5.4586  -0.5582  -0.7162  -0.9781   0.00    0.0
2020/03/07 00:56:30.000   22.372008903  113.927984924    99.2009   5   8   1.9178   2.4930   5.4761  -0.5644  -0.6638  -0.9841   0.00    0.0
2020/03/07 00:57:00.000   22.372008310  113.927984634    99.4713   5   8   1.9164   2.4998   5.4937  -0.5706  -0.6060  -0.9904   0.00    0.0
2020/03/07 00:57:30.000   22.372008016  113.927984940    99.7146   5   8   1.9151   2.5067   5.5114  -0.5768  -0.5410  -0.9968   0.00    0.0
2020/03/07 00:58:00.000   22.372008104  113.927986185    99.6243   5   8   1.9138   2.5137   5.5293  -0.5830  -0.4658  -1.0035   0.00    0.0
2020/03/07 00:58:30.000   22.372009137  113.927985840    99.0519   5   8   1.9125   2.5208   5.5472  -0.5892  -0.3742  -1.0104   0.00    0.0
2020/03/07 00:59:00.000   22.372009483  113.927984671    98.8568   5   8   1.9114   2.5281   5.5653  -0.5954  -0.2490  -1.0176   0.00    0.0
2020/03/07 00:59:30.000   22.372009175  113.927984275    98.6626   5   8   1.9102   2.5354   5.5835  -0.6017   0.1312  -1.0249   0.00    0.0
2020/03/07 01:00:00.000   22.372008136  113.927985290    97.9325   5   8   1.9081   2.4115   5.5343  -0.6486  -0.7757  -1.0587   0.00    0.0
2020/03/07 01:00:30.000   22.372008771  113.927985445    97.6758   5   8   1.9069   2.4180   5.5519  -0.6558  -0.7272  -1.0673   0.00    0.0
2020/03/07 01:01:00.000   22.372008765  113.927984444    97.9068   5   8   1.9059   2.4247   5.5696  -0.6631  -0.6743  -1.0760   0.00    0.0
2020/03/07 01:01:30.000   22.372008910  113.927983612    97.9354   5   8   1.9049   2.4314   5.5875  -0.6704  -0.6158  -1.0849   0.00    0.0
2020/03/07 01:02:00.000   22.372009986  113.927982651    97.9507   5   8   1.9039   2.4383   5.6055  -0.6777  -0.5501  -1.0940   0.00    0.0
2020/03/07 01:02:30.000   22.372009706  113.927983354    98.2860   5   8   1.9030   2.4453   5.6236  -0.6850  -0.4740  -1.1032   0.00    0.0
2020/03/07 01:03:00.000   22.372009475  113.927984257    98.2744   5   8   1.9021   2.4524   5.6417  -0.6923  -0.3814  -1.1126   0.00    0.0
2020/03/07 01:03:30.000   22.372009544  113.927983529    98.3609   5   8   1.9013   2.4596   5.6600  -0.6996  -0.2548  -1.1222   0.00    0.0
2020/03/07 01:04:00.000   22.372010083  113.927981935    98.1509   5   8   1.9005   2.4670   5.6784  -0.7070   0.1301  -1.1319   0.00    0.0
2020/03/07 01:04:30.000   22.372010040  113.927982400    98.2736   5   8   1.8998   2.4744   5.6969  -0.7144   0.3163  -1.1418   0.00    0.0
2020/03/07 01:05:00.000   22.372009720  113.927982851    98.4247   5   8   1.8992   2.4820   5.7155  -0.7218   0.4296  -1.1519   0.00    0.0
2020/03/07 01:05:30.000   22.372008874  113.927982330    98.4433   5   8   1.8986   2.4897   5.7342  -0.7293   0.5200  -1.1621   0.00    0.0
2020/03/07 01:06:00.000   22.372008452  113.927982952    98.0414   5   8   1.8980   2.4976   5.7530  -0.7368   0.5980  -1.1724   0.00    0.0
2020/03/07 01:06:30.000   22.372007647  113.927983725    98.1551   5   8   1.8975   2.5056   5.7718  -0.7443   0.6680  -1.1829   0.00    0.0
2020/03/07 01:07:00.000   22.372007334  113.927983822    98.4767   5   8   1.8971   2.5137   5.7908  -0.7519   0.7322  -1.1935   0.00    0.0
2020/03/07 01:07:30.000   22.372008700  113.927984011    98.3507   5   8   1.8967   2.5219   5.8098  -0.7595   0.7922  -1.2042   0.00    0.0
2020/03/07 01:08:00.000   22.372009364  113.927985006    98.3000   5   8   1.8963   2.5303   5.8289  -0.7672   0.8487  -1.2151   0.00    0.0
2020/03/07 01:08:30.000   22.372009679  113.927985611    98.2117   5   8   1.8961   2.5388   5.8481  -0.7749   0.9025  -1.2261   0.00    0.0
2020/03/07 01:09:00.000   22.372009414  113.927986717    98.6409   5   8   1.8958   2.5475   5.8674  -0.7826   0.9540  -1.2372   0.00    0.0
2020/03/07 01:09:30.000   22.372009568  113.927986839    98.6495   5   8   1.8957   2.5563   5.8867  -0.7905   1.0036  -1.2484   0.00    0.0
2020/03/07 01:10:00.000   22.372010164  113.927985888    98.5226   5   8   1.8956   2.5652   5.9061  -0.7983   1.0515  -1.2598   0.00    0.0
2020/03/07 01:10:30.000   22.372011374  113.927985351    98.2252   5   8   1.8955   2.5743   5.9256  -0.8062   1.0980  -1.2712   0.00    0.0
2020/03/07 01:11:00.000   22.372011892  113.927984446    98.0600   5   8   1.8955   2.5835   5.9451  -0.8142   1.1432  -1.2827   0.00    0.0
2020/03/07 01:11:30.000   22.372012343  113.927983173    97.7572   5   8   1.8956   2.5928   5.9646  -0.8223   1.1873  -1.2944   0.00    0.0
2020/03/07 01:12:00.000   22.372011923  113.927981999    97.7676   5   8   1.8957   2.6023   5.9842  -0.8303   1.2305  -1.3061   0.00    0.0
2020/03/07 01:12:30.000   22.372011416  113.927982052    98.0374   5   8   1.8959   2.6120   6.0038  -0.8385   1.2727  -1.3180   0.00    0.0
2020/03/07 01:13:00.000   22.372010361  113.927984124    97.9825   5   8   1.8961   2.6218   6.0235  -0.8467   1.3142  -1.3299   0.00    0.0
2020/03/07 01:13:30.000   22.372008174  113.927985359    97.7784   5   8   1.8964   2.6317   6.0432  -0.8550   1.3549  -1.3419   0.00    0.0
2020/03/07 01:14:00.000   22.372007828  113.927986405    97.8004   5   8   1.8968   2.6418   6.0629  -0.8633   1.3949  -1.3540   0.00    0.0
2020/03/07 01:14:30.000   22.372007557  113.927985444    98.1014   5   8   1.8972   2.6520   6.0826  -0.8717   1.4344  -1.3661   0.00    0.0
2020/03/07 01:15:00.000   22.372007262  113.927985376    98.4689   5   8   1.8977   2.6624   6.1024  -0.8802   1.4733  -1.3784   0.00    0.0
2020/03/07 01:15:30.000   22.372006066  113.927985705    98.9365   5   8   1.8982   2.6730   6.1221  -0.8887   1.5117  -1.3907   0.00    0.0
2020/03/07 01:16:00.000   22.372006276  113.927986665    98.9573   5   8   1.8988   2.6837   6.1418  -0.8973   1.5495  -1.4030   0.00    0.0
2020/03/07 01:16:30.000   22.372006791  113.927987126    99.1857   5   8   1.8995   2.6945   6.1615  -0.9060   1.5870  -1.4154   0.00    0.0
2020/03/07 01:17:00.000   22.372007313  113.927986476    99.1066   5   8   1.9002   2.7055   6.1812  -0.9147   1.6240  -1.4279   0.00    0.0
2020/03/07 01:17:30.000   22.372008391  113.927987146    98.8827   5   8   1.9010   2.7167   6.2009  -0.9235   1.6606  -1.4405   0.00    0.0
2020/03/07 01:18:00.000   22.372009305  113.927986780    98.7928   5   8   1.9018   2.7280   6.2205  -0.9323   1.6968  -1.4530   0.00    0.0
2020/03/07 01:18:30.000   22.372010040  113.927986334    97.8415   5   9   1.8844   2.5870   5.6881  -0.8052   2.3053  -1.6806   0.00    0.0
2020/03/07 01:19:00.000   22.372010780  113.927984723    97.6764   5   9   1.8855   2.5982   5.7135  -0.8157   2.3321  -1.6903   0.00    0.0
2020/03/07 01:19:30.000   22.372010447  113.927985836    97.5128   5   9   1.8867   2.6095   5.7388  -0.8262   2.3590  -1.7000   0.00    0.0
2020/03/07 01:20:00.000   22.372009348  113.927986303    97.5724   5   9   1.8879   2.6209   5.7642  -0.8367   2.3858  -1.7098   0.00    0.0
2020/03/07 01:20:30.000   22.372008290  113.927986455    97.5693   5   9   1.8892   2.6324   5.7897  -0.8472   2.4125  -1.7196   0.00    0.0
2020/03/07 01:21:00.000   22.372006686  113.927988148    97.6132   5   9   1.8906   2.6441   5.8151  -0.8577   2.4392  -1.7296   0.00    0.0
2020/03/07 01:21:30.000   22.372006040  113.927988743    97.7766   5   9   1.8920   2.6558   5.8405  -0.8682   2.4659  -1.7395   0.00    0.0
2020/03/07 01:22:00.000   22.372006185  113.927988038    97.6851   5   9   1.8934   2.6677   5.8659  -0.8787   2.4925  -1.7496   0.00    0.0
2020/03/07 01:22:30.000   22.372007088  113.927987229    97.5455   5   9   1.8950   2.6796   5.8913  -0.8891   2.5191  -1.7596   0.00    0.0
2020/03/07 01:23:00.000   22.372008317  113.927985951    97.3012   5   9   1.8965   2.6917   5.9167  -0.8996   2.5456  -1.7698   0.00    0.0
2020/03/07 01:23:30.000   22.372009519  113.927985445    97.0672   5   9   1.8982   2.7038   5.9419  -0.9101   2.5720  -1.7799   0.00    0.0
2020/03/07 01:24:00.000   22.372009962  113.927985632    97.1956   5   9   1.8999   2.7161   5.9672  -0.9206   2.5983  -1.7901   0.00    0.0
2020/03/07 01:24:30.000   22.372009556  113.927986104    97.3024   5   9   1.9016   2.7284   5.9923  -0.9311   2.6246  -1.8003   0.00    0.0
2020/03/07 01:25:00.000   22.372009437  113.927987218    97.1961   5   9   1.9034   2.7408   6.0173  -0.9415   2.6507  -1.8106   0.00    0.0
2020/03/07 01:25:30.000   22.372009097  113.927986428    96.8379   5   9   1.9053   2.7533   6.0423  -0.9520   2.6768  -1.8209   0.00    0.0
2020/03/07 01:26:00.000   22.372009384  113.927985288    96.7684   5   9   1.9072   2.7659   6.0671  -0.9624   2.7027  -1.8312   0.00    0.0
2020/03/07 01:26:30.000   22.372009287  113.927984653    96.7522   5   9   1.9092   2.7786   6.0918  -0.9728   2.7286  -1.8414   0.00    0.0
2020/03/07 01:27:00.000   22.372009264  113.927983515    96.7539   5   9   1.9112   2.7913   6.1163  -0.9832   2.7543  -1.8517   0.00    0.0
2020/03/07 01:27:30.000   22.372008697  113.927983576    96.6982   5   9   1.9133   2.8041   6.1406  -0.9936   2.7798  -1.8620   0.00    0.0
2020/03/07 01:28:00.000   22.372008620  113.927984610    96.6914   5   9   1.9154   2.8170   6.1648  -1.0040   2.8053  -1.8723   0.00    0.0
2020/03/07 01:28:30.000   22.372008924  113.927985742    96.9144   5   9   1.9176   2.8300   6.1887  -1.0144   2.8305  -1.8826   0.00    0.0
2020/03/07 01:29:00.000   22.372008865  113.927987063    97.1917   5   9   1.9199   2.8430   6.2125  -1.0247   2.8557  -1.8928   0.00    0.0
2020/03/07 01:29:30.000   22.372008637  113.927986128    96.8701   5   9   1.9222   2.8560   6.2360  -1.0350   2.8806  -1.9031   0.00    0.0
2020/03/07 01:30:00.000   22.372008442  113.927985154    96.5712   5   9   1.9246   2.8691   6.2592  -1.0453   2.9054  -1.9133   0.00    0.0
2020/03/07 01:30:30.000   22.372008092  113.927985315    96.5210   5   9   1.9270   2.8822   6.2822  -1.0555   2.9299  -1.9234   0.00    0.0
2020/03/07 01:31:00.000   22.372008503  113.927984443    96.3618   5   9   1.9294   2.8954   6.3049  -1.0658   2.9543  -1.9335   0.00    0.0
2020/03/07 01:31:30.000   22.372008603  113.927983458    96.4693   5   9   1.9320   2.9086   6.3272  -1.0759   2.9784  -1.9436   0.00    0.0
2020/03/07 01:32:00.000   22.372009325  113.927981434    96.4428   5   9   1.9345   2.9218   6.3493  -1.0861   3.0023  -1.9536   0.00    0.0
2020/03/07 01:32:30.000   22.372009498  113.927979569    96.3948   5   9   1.9371   2.9351   6.3710  -1.0962   3.0260  -1.9635   0.00    0.0
2020/03/07 01:33:00.000   22.372009481  113.927979446    96.5238   5   9   1.9398   2.9483   6.3924  -1.1062   3.0495  -1.9734   0.00    0.0
2020/03/07 01:33:30.000   22.372008586  113.927981016    96.5117   5   9   1.9425   2.9616   6.4133  -1.1162   3.0727  -1.9832   0.00    0.0
2020/03/07 01:34:00.000   22.372008061  113.927982685    96.5655   5   9   1.9453   2.9749   6.4339  -1.1262   3.0956  -1.9929   0.00    0.0
2020/03/07 01:34:30.000   22.372004696  113.927989973    98.3738   5  10   1.7589   2.3747   4.6364   0.4780   1.2567  -0.4997   0.00    0.0
2020/03/07 01:35:00.000   22.372002735  113.927988293    99.4325   5   9   1.8754   2.4935   5.2125   0.8425  -0.3929  -1.3357   0.00    0.0
2020/03/07 01:35:30.000   22.372004004  113.927989303    99.2115   5   9   1.8767   2.4946   5.2295   0.8374  -0.3352  -1.3424   0.00    0.0
2020/03/07 01:36:00.000   22.372004217  113.927989635    99.3340   5   9   1.8780   2.4956   5.2463   0.8323  -0.2648  -1.3490   0.00    0.0
2020/03/07 01:36:30.000   22.372004863  113.927990816    99.3148   5   9   1.8795   2.4967   5.2629   0.8272  -0.1663  -1.3557   0.00    0.0
2020/03/07 01:37:00.000   22.372004969  113.927991669    99.4599   5   9   1.8810   2.4978   5.2793   0.8220   0.1224  -1.3623   0.00    0.0
2020/03/07 01:37:30.000   22.372005933  113.927993553    99.4568   5   9   1.8825   2.4989   5.2955   0.8168   0.2405  -1.3689   0.00    0.0
2020/03/07 01:38:00.000   22.372006498  113.927994695    99.5411   5   9   1.8841   2.5001   5.3114   0.8115   0.3175  -1.3754   0.00    0.0
2020/03/07 01:38:30.000   22.372006675  113.927994217    99.4795   5   9   1.8858   2.5013   5.3271   0.8063   0.3794  -1.3818   0.00    0.0
2020/03/07 01:39:00.000   22.372006801  113.927993781    99.7976   5   9   1.8875   2.5025   5.3426   0.8010   0.4326  -1.3883   0.00    0.0
2020/03/07 01:39:30.000   22.372007432  113.927992373    99.7926   5   9   1.8892   2.5037   5.3578   0.7956   0.4801  -1.3946   0.00    0.0
2020/03/07 01:40:00.000   22.372007138  113.927991401    99.9111   5   9   1.8911   2.5050   5.3728   0.7903   0.5234  -1.4009   0.00    0.0
2020/03/07 01:40:30.000   22.372006177  113.927991392    99.9423   5   9   1.8929   2.5063   5.3874   0.7849   0.5633  -1.4071   0.00    0.0
2020/03/07 01:41:00.000   22.372006427  113.927991531    99.7281   5   9   1.8949   2.5076   5.4017   0.7795   0.6007  -1.4133   0.00    0.0
2020/03/07 01:41:30.000   22.372006505  113.927991541    99.7739   5   9   1.8968   2.5089   5.4158   0.7741   0.6358  -1.4194   0.00    0.0
2020/03/07 01:42:00.000   22.372006086  113.927991277    99.5493   5   9   1.8989   2.5103   5.4295   0.7686   0.6691  -1.4254   0.00    0.0
2020/03/07 01:42:30.000   22.372005215  113.927991009    99.6977   5   9   1.9010   2.5117   5.4429   0.7632   0.7008  -1.4313   0.00    0.0
2020/03/07 01:43:00.000   22.372004913  113.927989705    99.7544   5   9   1.9031   2.5131   5.4559   0.7577   0.7311  -1.4371   0.00    0.0
2020/03/07 01:43:30.000   22.372005653  113.927989726    99.7896   5   9   1.9053   2.5145   5.4686   0.7522   0.7601  -1.4428   0.00    0.0
2020/03/07 01:44:00.000   22.372005823  113.927990210   100.0061   5   9   1.9076   2.5160   5.4810   0.7466   0.7879  -1.4484   0.00    0.0
2020/03/07 01:44:30.000   22.372005519  113.927989934    99.9366   5   9   1.9099   2.5174   5.4929   0.7411   0.8147  -1.4539   0.00    0.0
2020/03/07 01:45:00.000   22.372005312  113.927990291    99.8799   5   9   1.9123   2.5189   5.5045   0.7355   0.8405  -1.4594   0.00    0.0
2020/03/07 01:45:30.000   22.372007270  113.927994199   100.8601   5  10   1.8490   2.4344   5.0358   0.4564  -0.8482  -1.8067   0.00    0.0
2020/03/07 01:46:00.000   22.372006348  113.927994314   100.8359   5  10   1.8511   2.4348   5.0492   0.4434  -0.8278  -1.8117   0.00    0.0
2020/03/07 01:46:30.000   22.372005897  113.927993203   100.3069   5  10   1.8531   2.4351   5.0622   0.4300  -0.8068  -1.8165   0.00    0.0
2020/03/07 01:47:00.000   22.372005601  113.927992525    99.9401   5  10   1.8552   2.4355   5.0751   0.4162  -0.7851  -1.8213   0.00    0.0
2020/03/07 01:47:30.000   22.372005012  113.927992231    99.7802   5  10   1.8574   2.4359   5.0876   0.4019  -0.7627  -1.8259   0.00    0.0
2020/03/07 01:48:00.000   22.372003818  113.927991156    99.8731   5  10   1.8596   2.4363   5.0999   0.3870  -0.7396  -1.8304   0.00    0.0
2020/03/07 01:48:30.000   22.372004132  113.927991458    99.9554   5  10   1.8618   2.4367   5.1119   0.3716  -0.7156  -1.8348   0.00    0.0
2020/03/07 01:49:00.000   22.372005053  113.927991416    99.8189   5  10   1.8640   2.4372   5.1235   0.3555  -0.6908  -1.8390   0.00    0.0
2020/03/07 01:49:30.000   22.372006750  113.927990937    99.7859   5  10   1.8663   2.4376   5.1349   0.3387  -0.6650  -1.8431   0.00    0.0
2020/03/07 01:50:00.000   22.372007871  113.927991635    99.3796   5  10   1.8686   2.4381   5.1460   0.3210  -0.6381  -1.8471   0.00    0.0
2020/03/07 01:50:30.000   22.372008160  113.927992722    99.1668   5  10   1.8710   2.4386   5.1568   0.3022  -0.6100  -1.8510   0.00    0.0
2020/03/07 01:51:00.000   22.372008625  113.927991854    99.4017   5  10   1.8733   2.4391   5.1672   0.2822  -0.5806  -1.8547   0.00    0.0
2020/03/07 01:51:30.000   22.372008357  113.927993026    99.5244   5  10   1.8758   2.4396   5.1773   0.2608  -0.5495  -1.8583   0.00    0.0
2020/03/07 01:52:00.000   22.372008204  113.927993005    99.7009   5  10   1.8782   2.4401   5.1871   0.2374  -0.5167  -1.8617   0.00    0.0
2020/03/07 01:52:30.000   22.372007474  113.927992172    99.6907   5  10   1.8807   2.4407   5.1965   0.2115  -0.4816  -1.8650   0.00    0.0
2020/03/07 01:53:00.000   22.372007349  113.927992220    99.6826   5  10   1.8832   2.4413   5.2056   0.1820  -0.4439  -1.8681   0.00    0.0
2020/03/07 01:53:30.000   22.372007855  113.927991717    99.5932   5  10   1.8857   2.4418   5.2143   0.1468  -0.4027  -1.8711   0.00    0.0
2020/03/07 01:54:00.000   22.372007955  113.927990529    99.3731   5  10   1.8883   2.4424   5.2227   0.0998  -0.3569  -1.8740   0.00    0.0
2020/03/07 01:54:30.000   22.372007782  113.927989398    99.6013   5  10   1.8909   2.4430   5.2307  -0.0397  -0.3044  -1.8767   0.00    0.0
2020/03/07 01:55:00.000   22.372006714  113.927988939   100.1126   5  10   1.8935   2.4436   5.2383  -0.1144  -0.2411  -1.8793   0.00    0.0
2020/03/07 01:55:30.000   22.372006466  113.927990044   100.2893   5  10   1.8961   2.4443   5.2456  -0.1568  -0.1540  -1.8817   0.00    0.0
2020/03/07 01:56:00.000   22.372005334  113.927990689   100.3712   5  10   1.8988   2.4449   5.2526  -0.1899   0.1027  -1.8839   0.00    0.0
2020/03/07 01:56:30.000   22.372005754  113.927991302   100.3079   5  10   1.9015   2.4456   5.2591  -0.2179   0.2113  -1.8860   0.00    0.0
2020/03/07 01:57:00.000   22.372006751  113.927991845   100.1537   5  10   1.9043   2.4462   5.2653  -0.2427   0.2802  -1.8879   0.00    0.0
2020/03/07 01:57:30.000   22.372007051  113.927992142   100.0656   5  10   1.9071   2.4469   5.2711  -0.2651   0.3350  -1.8897   0.00    0.0
2020/03/07 01:58:00.000   22.372007099  113.927992824   100.0972   5  10   1.9099   2.4476   5.2766  -0.2856   0.3817  -1.8913   0.00    0.0
2020/03/07 01:58:30.000   22.372007814  113.927992333   100.1332   5  10   1.9127   2.4483   5.2817  -0.3048   0.4230  -1.8928   0.00    0.0
2020/03/07 01:59:00.000   22.372008591  113.927994119   100.2140   5  10   1.9156   2.4490   5.2864  -0.3227   0.4604  -1.8941   0.00    0.0
2020/03/07 01:59:30.000   22.372008228  113.927995076   100.4073   5  10   1.9185   2.4497   5.2907  -0.3397   0.4946  -1.8953   0.00    0.0
2020/03/07 02:00:00.000   22.372007633  113.927994044   100.3747   5  10   1.9373   2.4717   5.3598  -0.2155   0.7394  -1.8411   0.00    0.0
2020/03/07 02:00:30.000   22.372008562  113.927993015   100.1367   5  10   1.9405   2.4726   5.3626  -0.2375   0.7608  -1.8418   0.00    0.0
2020/03/07 02:01:00.000   22.372009912  113.927993104    99.6351   5  10   1.9438   2.4736   5.3650  -0.2575   0.7813  -1.8423   0.00    0.0
2020/03/07 02:01:30.000   22.372009663  113.927993729    99.5364   5  10   1.9471   2.4746   5.3670  -0.2759   0.8010  -1.8427   0.00    0.0
2020/03/07 02:02:00.000   22.372009784  113.927994590    99.6162   5  10   1.9505   2.4755   5.3686  -0.2931   0.8201  -1.8429   0.00    0.0
2020/03/07 02:02:30.000   22.372009782  113.927995000    99.6017   5  10   1.9539   2.4765   5.3699  -0.3092   0.8384  -1.8430   0.00    0.0
2020/03/07 02:03:00.000   22.372009711  113.927994887    99.6902   5  10   1.9573   2.4775   5.3708  -0.3244   0.8561  -1.8430   0.00    0.0
2020/03/07 02:03:30.000   22.372009806  113.927994820    99.6954   5  10   1.9608   2.4785   5.3714  -0.3389   0.8732  -1.8427   0.00    0.0
2020/03/07 02:04:00.000   22.372009382  113.927994860    99.8687   5  10   1.9643   2.4795   5.3716  -0.3526   0.8898  -1.8424   0.00    0.0
2020/03/07 02:04:30.000   22.372008414  113.927995962    99.8618   5  10   1.9679   2.4805   5.3714  -0.3658   0.9058  -1.8419   0.00    0.0
2020/03/07 02:05:00.000   22.372008118  113.927995727    99.8251   5  10   1.9715   2.4815   5.3709  -0.3784   0.9212  -1.8412   0.00    0.0
2020/03/07 02:05:30.000   22.372006216  113.927997851    98.3894   5   9   2.0512   2.5150   5.8503  -0.6129  -0.2435  -1.4499   0.00    0.0
2020/03/07 02:06:00.000   22.372006930  113.927996749    98.2699   5   9   2.0545   2.5155   5.8533  -0.6188  -0.1701  -1.4473   0.00    0.0
2020/03/07 02:06:30.000   22.372007019  113.927995570    98.1730   5   9   2.0580   2.5160   5.8558  -0.6246   0.0347  -1.4447   0.00    0.0
2020/03/07 02:07:00.000   22.372008062  113.927994918    98.0624   5   9   2.0614   2.5165   5.8579  -0.6303   0.1764  -1.4419   0.00    0.0
2020/03/07 02:07:30.000   22.372009186  113.927994993    97.8811   5   9   2.0650   2.5170   5.8595  -0.6359   0.2465  -1.4389   0.00    0.0
2020/03/07 02:08:00.000   22.372009510  113.927994830    97.9243   5   9   2.0686   2.5175   5.8606  -0.6415   0.3003  -1.4359   0.00    0.0
2020/03/07 02:08:30.000   22.372009372  113.927994002    97.7159   5   9   2.0722   2.5180   5.8612  -0.6470   0.3454  -1.4326   0.00    0.0
2020/03/07 02:09:00.000   22.372008827  113.927993979    97.5326   5   9   2.0760   2.5186   5.8614  -0.6524   0.3849  -1.4293   0.00    0.0
2020/03/07 02:09:30.000   22.372007870  113.927994705    97.5936   5   9   2.0798   2.5191   5.8612  -0.6577   0.4203  -1.4258   0.00    0.0
2020/03/07 02:10:00.000   22.372007217  113.927994218    97.3939   5   9   2.0836   2.5196   5.8606  -0.6630   0.4527  -1.4222   0.00    0.0
2020/03/07 02:10:30.000   22.372006028  113.927993842    97.4125   5   9   2.0876   2.5202   5.8595  -0.6682   0.4826  -1.4184   0.00    0.0
2020/03/07 02:11:00.000   22.372006255  113.927993508    97.3358   5   9   2.0916   2.5207   5.8580  -0.6734   0.5104  -1.4146   0.00    0.0
2020/03/07 02:11:30.000   22.372005391  113.927995128    97.3173   5   9   2.0957   2.5213   5.8561  -0.6785   0.5365  -1.4106   0.00    0.0
2020/03/07 02:12:00.000   22.372006191  113.927996032    97.1973   5   9   2.0998   2.5218   5.8538  -0.6835   0.5611  -1.4064   0.00    0.0
2020/03/07 02:12:30.000   22.372006336  113.927996756    97.4572   5   9   2.1040   2.5224   5.8511  -0.6885   0.5844  -1.4022   0.00    0.0
2020/03/07 02:13:00.000   22.372007418  113.927996546    97.6716   5   9   2.1083   2.5230   5.8480  -0.6934   0.6065  -1.3978   0.00    0.0
2020/03/07 02:13:30.000   22.372007731  113.927995581    97.6933   5   9   2.1126   2.5235   5.8446  -0.6982   0.6275  -1.3933   0.00    0.0
2020/03/07 02:14:00.000   22.372007229  113.927994293    97.8665   5   9   2.1171   2.5241   5.8408  -0.7030   0.6476  -1.3886   0.00    0.0
2020/03/07 02:14:30.000   22.372006292  113.927994038    98.1438   5   9   2.1215   2.5247   5.8367  -0.7078   0.6668  -1.3839   0.00    0.0
2020/03/07 02:15:00.000   22.372006291  113.927994732    97.9679   5   9   2.1261   2.5253   5.8323  -0.7125   0.6853  -1.3790   0.00    0.0
2020/03/07 02:15:30.000   22.372006794  113.927995497    97.9349   5   9   2.1307   2.5258   5.8275  -0.7171   0.7030  -1.3741   0.00    0.0
2020/03/07 02:16:00.000   22.372007133  113.927995642    97.7303   5   9   2.1354   2.5264   5.8224  -0.7217   0.7200  -1.3690   0.00    0.0
2020/03/07 02:16:30.000   22.372007141  113.927995905    97.4118   5   9   2.1402   2.5270   5.8170  -0.7262   0.7364  -1.3638   0.00    0.0
2020/03/07 02:17:00.000   22.372007453  113.927996320    97.3045   5   9   2.1451   2.5276   5.8113  -0.7307   0.7522  -1.3585   0.00    0.0
2020/03/07 02:17:30.000   22.372007233  113.927996154    96.9864   5   9   2.1500   2.5282   5.8054  -0.7351   0.7674  -1.3530   0.00    0.0
2020/03/07 02:18:00.000   22.372006771  113.927996881    96.8039   5   9   2.1550   2.5288   5.7992  -0.7395   0.7821  -1.3475   0.00    0.0
2020/03/07 02:18:30.000   22.372006974  113.927997167    96.8065   5   9   2.1601   2.5294   5.7927  -0.7439   0.7963  -1.3419   0.00    0.0
2020/03/07 02:19:00.000   22.372007445  113.927998268    96.8330   5   9   2.1652   2.5300   5.7860  -0.7482   0.8101  -1.3361   0.00    0.0
2020/03/07 02:19:30.000   22.372008746  113.927998699    97.0212   5   9   2.1704   2.5307   5.7791  -0.7525   0.8234  -1.3303   0.00    0.0
2020/03/07 02:20:00.000   22.372008447  113.927997450    97.2025   5   9   2.1757   2.5313   5.7719  -0.7567   0.8363  -1.3244   0.00    0.0
2020/03/07 02:20:30.000   22.372007899  113.927997445    97.3984   5   9   2.1811   2.5319   5.7646  -0.7609   0.8488  -1.3183   0.00    0.0
2020/03/07 02:21:00.000   22.372008052  113.927998476    97.2887   5   9   2.1865   2.5325   5.7570  -0.7650   0.8609  -1.3122   0.00    0.0
2020/03/07 02:21:30.000   22.372007535  113.927997185    97.2768   5   9   2.1921   2.5331   5.7493  -0.7691   0.8727  -1.3059   0.00    0.0
2020/03/07 02:22:00.000   22.372007725  113.927997785    96.8089   5   9   2.1976   2.5338   5.7413  -0.7732   0.8841  -1.2996   0.00    0.0
2020/03/07 02:22:30.000   22.372007314  113.927996665    96.7456   5   9   2.2033   2.5344   5.7333  -0.7772   0.8952  -1.2932   0.00    0.0
2020/03/07 02:23:00.000   22.372007394  113.927996677    96.6241   5   9   2.2091   2.5351   5.7250  -0.7812   0.9059  -1.2867   0.00    0.0
2020/03/07 02:23:30.000   22.372008075  113.927996176    96.7147   5   9   2.2149   2.5357   5.7167  -0.7851   0.9164  -1.2801   0.00    0.0
2020/03/07 02:24:00.000   22.372008827  113.927996504    96.5446   5   9   2.2208   2.5364   5.7082  -0.7890   0.9266  -1.2734   0.00    0.0
2020/03/07 02:24:30.000   22.372009785  113.927996460    96.6976   5   9   2.2268   2.5370   5.6996  -0.7929   0.9365  -1.2666   0.00    0.0
2020/03/07 02:25:00.000   22.372009764  113.927995297    96.6097   5   9   2.2328   2.5377   5.6908  -0.7968   0.9461  -1.2597   0.00    0.0
2020/03/07 02:25:30.000   22.372008919  113.927995566    96.7225   5   9   2.2389   2.5383   5.6820  -0.8006   0.9555  -1.2527   0.00    0.0
2020/03/07 02:26:00.000   22.372009696  113.927995167    96.6667   5   9   2.2451   2.5390   5.6731  -0.8044   0.9647  -1.2457   0.00    0.0
2020/03/07 02:26:30.000   22.372010514  113.927994688    96.5135   5   9   2.2514   2.5397   5.6641  -0.8081   0.9736  -1.2386   0.00    0.0
2020/03/07 02:27:00.000   22.372011232  113.927995002    96.4368   5   9   2.2578   2.5404   5.6550  -0.8119   0.9823  -1.2313   0.00    0.0
2020/03/07 02:27:30.000   22.372012561  113.927993799    96.2289   5   9   2.2642   2.5410   5.6459  -0.8156   0.9907  -1.2240   0.00    0.0
2020/03/07 02:28:00.000   22.372013211  113.927993470    96.1144   5   9   2.2707   2.5417   5.6367  -0.8192   0.9990  -1.2167   0.00    0.0
2020/03/07 02:28:30.000   22.372012761  113.927994040    96.2105   5   9   2.2773   2.5424   5.6275  -0.8229   1.0071  -1.2092   0.00    0.0
2020/03/07 02:29:00.000   22.372011634  113.927995322    95.9948   5   9   2.2840   2.5431   5.6182  -0.8265   1.0150  -1.2016   0.00    0.0
2020/03/07 02:29:30.000   22.372011674  113.927995783    96.1751   5   9   2.2907   2.5438   5.6089  -0.8300   1.0227  -1.1940   0.00    0.0
2020/03/07 02:30:00.000   22.372011030  113.927996124    96.4717   5   9   2.2975   2.5445   5.5996  -0.8336   1.0303  -1.1863   0.00    0.0
2020/03/07 02:30:30.000   22.372010975  113.927995717    96.3931   5   9   2.3044   2.5453   5.5903  -0.8371   1.0376  -1.1785   0.00    0.0
2020/03/07 02:31:00.000   22.372009958  113.927996438    96.4395   5   9   2.3114   2.5460   5.5810  -0.8406   1.0449  -1.1706   0.00    0.0
2020/03/07 02:31:30.000   22.372008794  113.927995803    96.3789   5   9   2.3185   2.5467   5.5717  -0.8441   1.0519  -1.1626   0.00    0.0
2020/03/07 02:32:00.000   22.372009301  113.927995386    96.2966   5   9   2.3256   2.5475   5.5624  -0.8475   1.0588  -1.1546   0.00    0.0
2020/03/07 02:32:30.000   22.372009811  113.927994581    95.9838   5  10   2.2022   2.3928   4.8081  -0.2232  -1.1398   0.9075   0.00    0.0
2020/03/07 02:33:00.000   22.372009273  113.927994442    96.0234   5  10   2.2092   2.3918   4.8062  -0.2236  -1.1334   0.9147   0.00    0.0
2020/03/07 02:33:30.000   22.372009665  113.927993476    96.3469   5  10   2.2162   2.3909   4.8043  -0.2240  -1.1270   0.9218   0.00    0.0
2020/03/07 02:34:00.000   22.372010748  113.927993224    96.4906   5  10   2.2233   2.3900   4.8024  -0.2243  -1.1206   0.9289   0.00    0.0
2020/03/07 02:34:30.000   22.372011567  113.927994455    96.6215   5  10   2.2304   2.3890   4.8005  -0.2244  -1.1142   0.9360   0.00    0.0
2020/03/07 02:35:00.000   22.372011700  113.927994957    96.6603   5  10   2.2376   2.3881   4.7986  -0.2245  -1.1077   0.9431   0.00    0.0
2020/03/07 02:35:30.000   22.372012288  113.927995312    96.7631   5  10   2.2449   2.3872   4.7966  -0.2245  -1.1012   0.9502   0.00    0.0
2020/03/07 02:36:00.000   22.372012901  113.927996105    96.8370   5  10   2.2523   2.3863   4.7946  -0.2244  -1.0947   0.9572   0.00    0.0
2020/03/07 02:36:30.000   22.372012357  113.927995719    96.5217   5  10   2.2598   2.3854   4.7927  -0.2242  -1.0882   0.9643   0.00    0.0
2020/03/07 02:37:00.000   22.372011721  113.927995295    96.4758   5  10   2.2673   2.3845   4.7907  -0.2239  -1.0816   0.9714   0.00    0.0
2020/03/07 02:37:30.000   22.372011409  113.927994497    96.3566   5  10   2.2748   2.3837   4.7888  -0.2235  -1.0750   0.9785   0.00    0.0
2020/03/07 02:38:00.000   22.372011639  113.927994143    96.1126   5  10   2.2825   2.3828   4.7868  -0.2229  -1.0684   0.9855   0.00    0.0
2020/03/07 02:38:30.000   22.372012702  113.927994355    95.8472   5  10   2.2902   2.3820   4.7849  -0.2223  -1.0618   0.9926   0.00    0.0
2020/03/07 02:39:00.000   22.372013794  113.927995463    95.8053   5  10   2.2980   2.3811   4.7829  -0.2216  -1.0552   0.9996   0.00    0.0
2020/03/07 02:39:30.000   22.372013955  113.927996033    95.9358   5  10   2.3058   2.3803   4.7810  -0.2208  -1.0485   1.0066   0.00    0.0
2020/03/07 02:40:00.000   22.372014057  113.927995032    96.1433   5  10   2.3138   2.3795   4.7791  -0.2198  -1.0418   1.0137   0.00    0.0
2020/03/07 02:40:30.000   22.372013191  113.927993933    96.1923   5  10   2.3217   2.3786   4.7772  -0.2188  -1.0351   1.0207   0.00    0.0
2020/03/07 02:41:00.000   22.372013434  113.927994678    96.3977   5  10   2.3298   2.3778   4.7753  -0.2176  -1.0283   1.0277   0.00    0.0
2020/03/07 02:41:30.000   22.372014302  113.927994044    96.5435   5  10   2.3379   2.3771   4.7735  -0.2163  -1.0216   1.0347   0.00    0.0
2020/03/07 02:42:00.000   22.372014034  113.927995478    96.3286   5  10   2.3461   2.3763   4.7717  -0.2149  -1.0148   1.0417   0.00    0.0
2020/03/07 02:42:30.000   22.372014202  113.927996749    96.3794   5  10   2.3543   2.3755   4.7699  -0.2133  -1.0080   1.0487   0.00    0.0
2020/03/07 02:43:00.000   22.372014824  113.927996859    96.5181   5  10   2.3626   2.3747   4.7682  -0.2117  -1.0012   1.0557   0.00    0.0
2020/03/07 02:43:30.000   22.372014547  113.927996490    96.5839   5  10   2.3710   2.3740   4.7665  -0.2099  -0.9943   1.0626   0.00    0.0
2020/03/07 02:44:00.000   22.372014321  113.927995633    96.6203   5  10   2.3794   2.3733   4.7648  -0.2079  -0.9874   1.0696   0.00    0.0
2020/03/07 02:44:30.000   22.372014429  113.927995587    96.7425   5  10   2.3879   2.3725   4.7632  -0.2058  -0.9805   1.0765   0.00    0.0
2020/03/07 02:45:00.000   22.372014535  113.927995296    96.5460   5  10   2.3964   2.3718   4.7616  -0.2036  -0.9736   1.0835   0.00    0.0
2020/03/07 02:45:30.000   22.372013475  113.927994360    96.2995   5  10   2.4050   2.3711   4.7600  -0.2012  -0.9667   1.0904   0.00    0.0
2020/03/07 02:46:00.000   22.372013882  113.927993297    96.1463   5  10   2.4137   2.3705   4.7585  -0.1987  -0.9597   1.0972   0.00    0.0
2020/03/07 02:46:30.000   22.372014423  113.927993677    96.3636   5  10   2.4224   2.3698   4.7571  -0.1960  -0.9527   1.1041   0.00    0.0
2020/03/07 02:47:00.000   22.372014656  113.927995066    96.5817   5  10   2.4311   2.3691   4.7557  -0.1931  -0.9457   1.1110   0.00    0.0
2020/03/07 02:47:30.000   22.372015250  113.927994079    96.3960   5  10   2.4400   2.3685   4.7544  -0.1901  -0.9386   1.1178   0.00    0.0
2020/03/07 02:48:00.000   22.372015587  113.927994883    96.1595   5  10   2.4488   2.3679   4.7531  -0.1868  -0.9315   1.1246   0.00    0.0
2020/03/07 02:48:30.000   22.372015133  113.927995745    96.0257   5  10   2.4578   2.3672   4.7518  -0.1834  -0.9244   1.1314   0.00    0.0
2020/03/07 02:49:00.000   22.372015341  113.927995717    96.1345   5  10   2.4667   2.3666   4.7506  -0.1797  -0.9173   1.1381   0.00    0.0
2020/03/07 02:49:30.000   22.372015518  113.927995511    96.1630   5  10   2.4758   2.3661   4.7495  -0.1758  -0.9101   1.1448   0.00    0.0
2020/03/07 02:50:00.000   22.372015230  113.927994924    96.1300   5  10   2.4848   2.3655   4.7485  -0.1716  -0.9029   1.1515   0.00    0.0
2020/03/07 02:50:30.000   22.372016410  113.927994060    96.3699   5  10   2.4939   2.3649   4.7475  -0.1672  -0.8957   1.1582   0.00    0.0
2020/03/07 02:51:00.000   22.372016853  113.927994483    96.3489   5  10   2.5031   2.3644   4.7465  -0.1625  -0.8884   1.1648   0.00    0.0
2020/03/07 02:51:30.000   22.372018545  113.927994180    96.4016   5  10   2.5123   2.3639   4.7456  -0.1575  -0.8811   1.1714   0.00    0.0
2020/03/07 02:52:00.000   22.372018888  113.927994288    96.4940   5  10   2.5216   2.3634   4.7448  -0.1522  -0.8738   1.1780   0.00    0.0
2020/03/07 02:52:30.000   22.372019288  113.927994396    96.7837   5  10   2.5308   2.3629   4.7441  -0.1465  -0.8664   1.1845   0.00    0.0
2020/03/07 02:53:00.000   22.372019323  113.927994531    96.6704   5  10   2.5402   2.3624   4.7434  -0.1403  -0.8590   1.1910   0.00    0.0
2020/03/07 02:53:30.000   22.372018753  113.927994363    96.7962   5  10   2.5495   2.3619   4.7428  -0.1337  -0.8516   1.1974   0.00    0.0
2020/03/07 02:54:00.000   22.372018452  113.927994794    96.9940   5  10   2.5589   2.3615   4.7422  -0.1265  -0.8441   1.2038   0.00    0.0
2020/03/07 02:54:30.000   22.372018896  113.927995450    96.7701   5  10   2.5684   2.3611   4.7417  -0.1187  -0.8366   1.2101   0.00    0.0
2020/03/07 02:55:00.000   22.372018895  113.927996959    96.4994   5  10   2.5778   2.3607   4.7413  -0.1100  -0.8291   1.2164   0.00    0.0
2020/03/07 02:55:30.000   22.372019232  113.927997042    96.5505   5  10   2.5873   2.3603   4.7410  -0.1004  -0.8215   1.2226   0.00    0.0
2020/03/07 02:56:00.000   22.372018953  113.927997918    96.6733   5  10   2.5969   2.3599   4.7407  -0.0894  -0.8138   1.2288   0.00    0.0
2020/03/07 02:56:30.000   22.372017862  113.927998950    96.5111   5  10   2.6064   2.3596   4.7405  -0.0765  -0.8062   1.2349   0.00    0.0
2020/03/07 02:57:00.000   22.372017446  113.927998944    96.5893   5  10   2.6160   2.3592   4.7404  -0.0606  -0.7985   1.2409   0.00    0.0
2020/03/07 02:57:30.000   22.372018355  113.927998385    96.6056   5  10   2.6256   2.3589   4.7403  -0.0377  -0.7907   1.2469   0.00    0.0
2020/03/07 02:58:00.000   22.372019009  113.927997564    96.6164   5   9   2.7681   2.5056   5.3049   0.8469  -1.6207  -0.6695   0.00    0.0
2020/03/07 02:58:30.000   22.372019331  113.927997588    96.6520   5   9   2.7775   2.5038   5.3059   0.8465  -1.6141  -0.6613   0.00    0.0
2020/03/07 02:59:00.000   22.372019390  113.927996700    96.5371   5   9   2.7870   2.5021   5.3069   0.8461  -1.6075  -0.6530   0.00    0.0
2020/03/07 02:59:30.000   22.372018516  113.927995520    96.7817   5   9   2.7964   2.5004   5.3079   0.8457  -1.6009  -0.6445   0.00    0.0
2020/03/07 03:00:00.000   22.372017994  113.927994898    97.3322   5   9   2.6813   2.4531   5.3084   0.5674  -1.5826  -0.5831   0.00    0.0
2020/03/07 03:00:30.000   22.372019152  113.927994257    97.4730   5   9   2.6904   2.4512   5.3093   0.5648  -1.5747  -0.5678   0.00    0.0
2020/03/07 03:01:00.000   22.372020229  113.927993785    97.5341   5   9   2.6995   2.4493   5.3103   0.5622  -1.5667  -0.5521   0.00    0.0
2020/03/07 03:01:30.000   22.372021062  113.927993357    97.5335   5   9   2.7087   2.4474   5.3113   0.5597  -1.5587  -0.5358   0.00    0.0
2020/03/07 03:02:00.000   22.372019872  113.927992759    97.6516   5   9   2.7178   2.4456   5.3124   0.5573  -1.5506  -0.5191   0.00    0.0
2020/03/07 03:02:30.000   22.372018817  113.927993257    97.5501   5   9   2.7270   2.4438   5.3134   0.5549  -1.5425  -0.5018   0.00    0.0
2020/03/07 03:03:00.000   22.372017517  113.927993427    97.4214   5   9   2.7362   2.4420   5.3145   0.5525  -1.5343  -0.4839   0.00    0.0
2020/03/07 03:03:30.000   22.372016819  113.927994978    97.4077   5   9   2.7454   2.4403   5.3156   0.5503  -1.5261  -0.4654   0.00    0.0
2020/03/07 03:04:00.000   22.372016702  113.927995497    97.1140   5   9   2.7546   2.4386   5.3167   0.5480  -1.5179  -0.4462   0.00    0.0
2020/03/07 03:04:30.000   22.372016446  113.927995860    97.1420   5   9   2.7639   2.4369   5.3179   0.5459  -1.5096  -0.4262   0.00    0.0
2020/03/07 03:05:00.000   22.372017780  113.927996523    97.1543   5   9   2.7731   2.4353   5.3191   0.5438  -1.5013  -0.4052   0.00    0.0
2020/03/07 03:05:30.000   22.372019236  113.927996651    97.0484   5   9   2.7824   2.4337   5.3203   0.5418  -1.4930  -0.3833   0.00    0.0
2020/03/07 03:06:00.000   22.372019970  113.927996074    96.9618   5   9   2.7916   2.4322   5.3215   0.5398  -1.4846  -0.3601   0.00    0.0
2020/03/07 03:06:30.000   22.372019893  113.927995843    96.9411   5   9   2.8008   2.4307   5.3228   0.5379  -1.4761  -0.3355   0.00    0.0
2020/03/07 03:07:00.000   22.372020003  113.927995418    96.9135   5   9   2.8101   2.4292   5.3241   0.5361  -1.4677  -0.3092   0.00    0.0
2020/03/07 03:07:30.000   22.372020640  113.927994914    97.0034   5   9   2.8193   2.4278   5.3254   0.5343  -1.4592  -0.2807   0.00    0.0
2020/03/07 03:08:00.000   22.372019788  113.927994445    97.0139   5   9   2.8286   2.4264   5.3267   0.5326  -1.4506  -0.2492   0.00    0.0
2020/03/07 03:08:30.000   22.372020583  113.927994867    97.1292   5   9   2.8378   2.4250   5.3281   0.5309  -1.4420  -0.2135   0.00    0.0
2020/03/07 03:09:00.000   22.372020826  113.927994984    97.1855   5   9   2.8471   2.4237   5.3295   0.5294  -1.4334  -0.1711   0.00    0.0
2020/03/07 03:09:30.000   22.372022923  113.927994510    97.2970   5   9   2.8563   2.4224   5.3310   0.5279  -1.4247  -0.1146   0.00    0.0
2020/03/07 03:10:00.000   22.372023220  113.927994961    97.1714   5   9   2.8655   2.4211   5.3325   0.5264  -1.4160   0.0528   0.00    0.0
2020/03/07 03:10:30.000   22.372023074  113.927995149    96.6976   5   9   2.8747   2.4199   5.3340   0.5251  -1.4073   0.1360   0.00    0.0
2020/03/07 03:11:00.000   22.372023025  113.927994781    96.6641   5   9   2.8838   2.4187   5.3355   0.5237  -1.3985   0.1842   0.00    0.0
2020/03/07 03:11:30.000   22.372019372  113.927995443    95.9021   5   8   3.6953   2.4852   6.8205  -1.0250  -2.0919   3.1326   0.00    0.0
2020/03/07 03:12:00.000   22.372018314  113.927997483    95.8123   5   8   3.7063   2.4835   6.8295  -1.0242  -2.0849   3.1437   0.00    0.0
2020/03/07 03:12:30.000   22.372018028  113.927999402    95.6614   5   8   3.7171   2.4818   6.8381  -1.0232  -2.0777   3.1543   0.00    0.0
2020/03/07 03:13:00.000   22.372017274  113.927999399    95.6278   5   8   3.7276   2.4802   6.8463  -1.0220  -2.0703   3.1644   0.00    0.0
2020/03/07 03:13:30.000   22.372016587  113.927998822    95.8406   5   8   3.7379   2.4785   6.8541  -1.0205  -2.0628   3.1738   0.00    0.0
2020/03/07 03:14:00.000   22.372016096  113.927998894    95.8722   5   8   3.7478   2.4769   6.8614  -1.0187  -2.0549   3.1826   0.00    0.0
2020/03/07 03:14:30.000   22.372016208  113.927997246    96.2552   5   8   3.7575   2.4753   6.8684  -1.0168  -2.0469   3.1908   0.00    0.0
2020/03/07 03:15:00.000   22.372017252  113.927996206    96.4881   5   8   3.7669   2.4738   6.8748  -1.0145  -2.0387   3.1985   0.00    0.0
2020/03/07 03:15:30.000   22.372018698  113.927995961    96.5440   5   8   3.7760   2.4722   6.8809  -1.0121  -2.0303   3.2054   0.00    0.0
2020/03/07 03:16:00.000   22.372020419  113.927996394    96.7499   5   8   3.7848   2.4707   6.8865  -1.0094  -2.0217   3.2118   0.00    0.0
2020/03/07 03:16:30.000   22.372020104  113.927997310    96.5311   5   8   3.7933   2.4692   6.8916  -1.0064  -2.0129   3.2175   0.00    0.0
2020/03/07 03:17:00.000   22.372019107  113.927999097    96.2480   5   8   3.8015   2.4678   6.8963  -1.0033  -2.0039   3.2225   0.00    0.0
2020/03/07 03:17:30.000   22.372018177  113.928000180    96.0227   5   8   3.8094   2.4664   6.9005  -0.9999  -1.9947   3.2269   0.00    0.0
2020/03/07 03:18:00.000   22.372017454  113.927998926    96.1773   5   8   3.8169   2.4650   6.9043  -0.9962  -1.9853   3.2306   0.00    0.0
2020/03/07 03:18:30.000   22.372016912  113.927996740    96.1276   5   8   3.8241   2.4636   6.9076  -0.9923  -1.9758   3.2336   0.00    0.0
2020/03/07 03:19:00.000   22.372016653  113.927995139    96.2817   5   8   3.8310   2.4623   6.9105  -0.9883  -1.9660   3.2360   0.00    0.0
2020/03/07 03:19:30.000   22.372018483  113.927995454    96.4353   5   8   3.8375   2.4610   6.9128  -0.9839  -1.9561   3.2377   0.00    0.0
2020/03/07 03:20:00.000   22.372019105  113.927995092    96.7201   5   8   3.8437   2.4598   6.9148  -0.9794  -1.9459   3.2386   0.00    0.0
2020/03/07 03:20:30.000   22.372025279  113.927993704    97.7194   5   9   2.9600   2.4379   5.4295  -0.4082  -1.5438  -0.2317   0.00    0.0
2020/03/07 03:21:00.000   22.372027328  113.927993638    97.5279   5   9   2.9623   2.4371   5.4356  -0.4044  -1.5360  -0.2573   0.00    0.0
2020/03/07 03:21:30.000   22.372027378  113.927993652    97.4756   5   9   2.9645   2.4364   5.4417  -0.4006  -1.5283  -0.2817   0.00    0.0
2020/03/07 03:22:00.000   22.372027140  113.927994217    97.3198   5   9   2.9666   2.4358   5.4479  -0.3966  -1.5204  -0.3052   0.00    0.0
2020/03/07 03:22:30.000   22.372027379  113.927995139    97.3083   5   9   2.9686   2.4351   5.4540  -0.3926  -1.5126  -0.3279   0.00    0.0
2020/03/07 03:23:00.000   22.372027377  113.927996656    97.1821   5   9   2.9706   2.4346   5.4602  -0.3884  -1.5047  -0.3501   0.00    0.0
2020/03/07 03:23:30.000   22.372026709  113.927997014    97.1902   5   9   2.9724   2.4340   5.4664  -0.3841  -1.4967  -0.3719   0.00    0.0
2020/03/07 03:24:00.000   22.372025625  113.927996379    97.3829   5   9   2.9741   2.4335   5.4727  -0.3797  -1.4888  -0.3932   0.00    0.0
2020/03/07 03:24:30.000   22.372025934  113.927996781    97.5184   5   9   2.9758   2.4331   5.4789  -0.3753  -1.4807  -0.4142   0.00    0.0
2020/03/07 03:25:00.000   22.372026245  113.927996947    97.6859   5   9   2.9773   2.4326   5.4852  -0.3707  -1.4727  -0.4349   0.00    0.0
2020/03/07 03:25:30.000   22.372027047  113.927996614    97.9280   5   9   2.9788   2.4323   5.4915  -0.3660  -1.4646  -0.4554   0.00    0.0
2020/03/07 03:26:00.000   22.372026868  113.927995681    97.9933   5   9   2.9802   2.4319   5.4979  -0.3612  -1.4564  -0.4757   0.00    0.0
2020/03/07 03:26:30.000   22.372026446  113.927997000    97.8090   5   9   2.9814   2.4316   5.5043  -0.3564  -1.4482  -0.4957   0.00    0.0
2020/03/07 03:27:00.000   22.372027668  113.927997168    97.7157   5   9   2.9826   2.4314   5.5107  -0.3514  -1.4400  -0.5156   0.00    0.0
2020/03/07 03:27:30.000   22.372029498  113.927996607    97.5017   5   9   2.9837   2.4312   5.5171  -0.3464  -1.4318  -0.5353   0.00    0.0
2020/03/07 03:28:00.000   22.372029983  113.927996470    97.6707   5   9   2.9847   2.4310   5.5236  -0.3412  -1.4235  -0.5548   0.00    0.0
2020/03/07 03:28:30.000   22.372031265  113.927996605    97.5485   5   9   2.9856   2.4309   5.5301  -0.3360  -1.4151  -0.5742   0.00    0.0
2020/03/07 03:29:00.000   22.372030392  113.927995507    97.6390   5   9   2.9864   2.4308   5.5366  -0.3307  -1.4068  -0.5935   0.00    0.0
2020/03/07 03:29:30.000   22.372029791  113.927996306    97.5161   5   9   2.9872   2.4308   5.5432  -0.3253  -1.3984  -0.6127   0.00    0.0
2020/03/07 03:30:00.000   22.372029094  113.927996204    97.4117   5   9   2.9878   2.4308   5.5498  -0.3199  -1.3900  -0.6317   0.00    0.0
2020/03/07 03:30:30.000   22.372028598  113.927995742    97.3633   5   9   2.9884   2.4308   5.5565  -0.3143  -1.3815  -0.6506   0.00    0.0
2020/03/07 03:31:00.000   22.372028457  113.927996064    97.1259   5   9   2.9888   2.4309   5.5632  -0.3087  -1.3731  -0.6695   0.00    0.0
2020/03/07 03:31:30.000   22.372027813  113.927997050    97.1482   5   9   2.9892   2.4310   5.5699  -0.3030  -1.3646  -0.6882   0.00    0.0
